[{"rating": 5.0, "review_count": 549, "name": "Lincoln Memorial", "longitude": -77.0501470564384, "shape": 283, "address": ["Lincoln Memorial Cir NW"], "latitude": 38.8892750597524, "categories": [["Landmarks & Historical Buildings", "landmarks"]]}, {"rating": 5.0, "review_count": 298, "name": "Arlington National Cemetery", "longitude": -77.0612029173198, "shape": 451, "address": ["Memorial Dr"], "latitude": 38.8750478485961, "categories": [["Landmarks & Historical Buildings", "landmarks"], ["Funeral Services & Cemeteries", "funeralservices"], ["Tours", "tours"]]}, {"rating": 4.5, "review_count": 188, "name": "Vietnam Veterans Memorial", "longitude": -77.0476747857971, "shape": 283, "address": ["National Mall", "Henry Bacon Dr and Constitution Ave NW"], "latitude": 38.8910251787901, "categories": [["Landmarks & Historical Buildings", "landmarks"]]}, {"rating": 4.5, "review_count": 335, "name": "El Chilango", "longitude": -77.078193, "shape": 451, "address": ["14th St N & N Quinn St"], "latitude": 38.890849, "categories": [["Mexican", "mexican"], ["Food Stands", "foodstands"]]}, {"rating": 4.5, "review_count": 230, "name": "Library of Congress", "longitude": -77.0046997, "shape": 283, "address": ["101 Independence Ave SE"], "latitude": 38.8868103, "categories": [["Libraries", "libraries"], ["Landmarks & Historical Buildings", "landmarks"]]}, {"rating": 4.5, "review_count": 543, "name": "Komi", "longitude": -77.0381317138672, "shape": 103, "address": ["1509 17th St NW"], "latitude": 38.9101219177246, "categories": [["Greek", "greek"], ["Mediterranean", "mediterranean"]]}, {"rating": 4.5, "review_count": 142, "name": "Korean War Veterans Memorial", "longitude": -77.0502014, "shape": 283, "address": ["Lincoln Memorial Circle Southwest", "23rd St SW near Ohio Drive SW and Independence Ave SW"], "latitude": 38.8882103, "categories": [["Landmarks & Historical Buildings", "landmarks"]]}, {"rating": 5.0, "review_count": 26, "name": "Yelp Goes to Bovine University at Del Frisco's Double Eagle", "longitude": -77.0250015, "shape": 305, "address": ["950 I Street Northwest", "Suite 501"], "latitude": 38.9007149, "categories": [["Yelp Events", "yelpevents"]]}, {"rating": 4.5, "review_count": 211, "name": "&pizza", "longitude": -77.026232779026, "shape": 305, "address": ["1005 E St NW"], "latitude": 38.896194845438, "categories": [["Pizza", "pizza"], ["Vegetarian", "vegetarian"], ["Vegan", "vegan"]]}, {"rating": 4.5, "review_count": 188, "name": "Jefferson Memorial", "longitude": -77.036445112006, "shape": 283, "address": ["900 Ohio Dr SW"], "latitude": 38.881515356364, "categories": [["Landmarks & Historical Buildings", "landmarks"]]}, {"rating": 4.5, "review_count": 679, "name": "Rose's Luxury", "longitude": -76.995338, "shape": 265, "address": ["717 8th St SE"], "latitude": 38.880638, "categories": [["American (New)", "newamerican"]]}, {"rating": 4.5, "review_count": 347, "name": "Keren Restaurant", "longitude": -77.041243, "shape": 178, "address": ["1780 Florida Ave NW"], "latitude": 38.916715, "categories": [["Ethiopian", "ethiopian"], ["Cafes", "cafes"]]}, {"rating": 5.0, "review_count": 82, "name": "Marine Corps War Memorial", "longitude": -77.06974625587459, "shape": 451, "address": ["Arlington National Cemetery", "Meade St and Marshall Dr"], "latitude": 38.890423222956, "categories": [["Landmarks & Historical Buildings", "landmarks"]]}, {"rating": 5.0, "review_count": 23, "name": "Sammy's Coffee Kiosk", "longitude": -77.048126, "shape": 415, "address": ["2121 Virginia Ave NW"], "latitude": 38.896473, "categories": [["Coffee & Tea", "coffee"]]}, {"rating": 4.5, "review_count": 225, "name": "National Mall", "longitude": -77.0311351477082, "shape": 283, "address": ["900 Ohio Dr SW"], "latitude": 38.8894658382032, "categories": [["Parks", "parks"]]}, {"rating": 4.5, "review_count": 374, "name": "Greek Deli & Catering", "longitude": -77.043926, "shape": 2, "address": ["1120 19th St NW"], "latitude": 38.905027, "categories": [["Delis", "delis"], ["Greek", "greek"], ["Breakfast & Brunch", "breakfast_brunch"]]}, {"rating": 4.5, "review_count": 129, "name": "Smithsonian American Art Museum", "longitude": -77.022983, "shape": 305, "address": ["8th St & F St NW"], "latitude": 38.898832, "categories": [["Landmarks & Historical Buildings", "landmarks"], ["Museums", "museums"]]}, {"rating": 4.5, "review_count": 318, "name": "Bub and Pop's", "longitude": -77.042368, "shape": 149, "address": ["1815 M St NW"], "latitude": 38.906029, "categories": [["Sandwiches", "sandwiches"]]}, {"rating": 4.5, "review_count": 200, "name": "Minibar by Jose Andres", "longitude": -77.0234985, "shape": 305, "address": ["855 E St NW"], "latitude": 38.8962631, "categories": [["American (New)", "newamerican"], ["Cocktail Bars", "cocktailbars"]]}, {"rating": 4.5, "review_count": 1705, "name": "Rasika", "longitude": -77.0212860107422, "shape": 136, "address": ["633 D St NW"], "latitude": 38.8950080871582, "categories": [["Indian", "indpak"]]}, {"rating": 4.5, "review_count": 344, "name": "&pizza", "longitude": -77.029065, "shape": 107, "address": ["1250 U St NW"], "latitude": 38.916738, "categories": [["Pizza", "pizza"], ["Vegetarian", "vegetarian"], ["Vegan", "vegan"]]}, {"rating": 4.5, "review_count": 1472, "name": "Amsterdam Falafelshop", "longitude": -77.041862487793, "shape": 99, "address": ["2425 18th St NW"], "latitude": 38.921199798584, "categories": [["Vegetarian", "vegetarian"], ["Middle Eastern", "mideastern"], ["Falafel", "falafel"]]}, {"rating": 4.5, "review_count": 1142, "name": "Fogo de Ch\u00e3o Brazilian Steakhouse", "longitude": -77.0274124, "shape": 305, "address": ["1101 Pennsylvania Ave. NW"], "latitude": 38.8953514, "categories": [["Brazilian", "brazilian"], ["Steakhouses", "steak"], ["Seafood", "seafood"]]}, {"rating": 4.5, "review_count": 444, "name": "&pizza", "longitude": -76.9907837, "shape": 117, "address": ["1118 H St NE"], "latitude": 38.9004517, "categories": [["Pizza", "pizza"], ["Vegetarian", "vegetarian"], ["Vegan", "vegan"]]}, {"rating": 4.5, "review_count": 162, "name": "National World War II Memorial", "longitude": -77.0388184, "shape": 283, "address": ["The National Mall", "17th and Independence Ave SW"], "latitude": 38.8879814, "categories": [["Landmarks & Historical Buildings", "landmarks"]]}, {"rating": 4.5, "review_count": 67, "name": "Neopol Savory Smokery", "longitude": -76.9979685, "shape": 343, "address": ["1309 5th St NE"], "latitude": 38.9087806, "categories": [["Bakeries", "bakeries"], ["Sandwiches", "sandwiches"], ["Seafood", "seafood"]]}, {"rating": 4.5, "review_count": 121, "name": "Barmini", "longitude": -77.0234985, "shape": 305, "address": ["855 E St NW"], "latitude": 38.8962631, "categories": [["American (New)", "newamerican"], ["Cocktail Bars", "cocktailbars"]]}, {"rating": 4.5, "review_count": 1940, "name": "Baked & Wired", "longitude": -77.0601975917816, "shape": 419, "address": ["1052 Thomas Jefferson St NW"], "latitude": 38.9036746572625, "categories": [["Bakeries", "bakeries"], ["Coffee & Tea", "coffee"], ["Cupcakes", "cupcakes"]]}, {"rating": 4.5, "review_count": 238, "name": "Basil Thyme", "longitude": -77.0258331, "shape": 394, "address": ["L' Enfant Plz"], "latitude": 38.885891, "categories": [["Food Stands", "foodstands"], ["Italian", "italian"], ["Food Trucks", "foodtrucks"]]}, {"rating": 4.5, "review_count": 129, "name": "FDR Memorial", "longitude": -77.0445561643798, "shape": 283, "address": ["1850 W Basin Dr SW"], "latitude": 38.8841757704779, "categories": [["Landmarks & Historical Buildings", "landmarks"]]}, {"rating": 4.5, "review_count": 111, "name": "Caffe Aficionado", "longitude": -77.070685, "shape": 451, "address": ["1919 N Lynn St"], "latitude": 38.897529, "categories": [["Coffee & Tea", "coffee"]]}, {"rating": 4.5, "review_count": 156, "name": "Simply Banh Mi", "longitude": -77.0656122492302, "shape": 242, "address": ["1624 Wisconsin Ave NW"], "latitude": 38.911475972879, "categories": [["Vietnamese", "vietnamese"], ["Sandwiches", "sandwiches"], ["Halal", "halal"]]}, {"rating": 4.5, "review_count": 179, "name": "illy", "longitude": -77.0475235, "shape": 2, "address": ["1143 New Hampshire Ave NW"], "latitude": 38.9047585, "categories": [["Coffee & Tea", "coffee"]]}, {"rating": 4.5, "review_count": 132, "name": "Uprising Muffin Company", "longitude": -77.02191, "shape": 107, "address": ["1817 7th St NW"], "latitude": 38.914912, "categories": [["Coffee & Tea", "coffee"], ["Bakeries", "bakeries"], ["Sandwiches", "sandwiches"]]}, {"rating": 4.5, "review_count": 291, "name": "Washington Monument", "longitude": -77.0352530479431, "shape": 283, "address": ["15th St SW"], "latitude": 38.8894628780114, "categories": [["Landmarks & Historical Buildings", "landmarks"]]}, {"rating": 4.5, "review_count": 210, "name": "Stachowski Market & Deli", "longitude": -77.0569687, "shape": 69, "address": ["1425 28th St NW"], "latitude": 38.9091187, "categories": [["Butcher", "butcher"], ["Delis", "delis"], ["Polish", "polish"]]}, {"rating": 4.5, "review_count": 285, "name": "Marcel's by Robert Wiedmaier", "longitude": -77.0519104, "shape": 372, "address": ["2401 Pennsylvania Ave NW"], "latitude": 38.9034691, "categories": [["French", "french"], ["Belgian", "belgian"]]}, {"rating": 4.5, "review_count": 161, "name": "Washington National Cathedral", "longitude": -77.0725784301758, "shape": 84, "address": ["3101 Wisconsin Ave NW"], "latitude": 38.9309921264648, "categories": [["Churches", "churches"], ["Landmarks & Historical Buildings", "landmarks"]]}, {"rating": 4.5, "review_count": 217, "name": "La Colombe", "longitude": -77.0254288, "shape": 231, "address": ["1219 Blagden Alley NW"], "latitude": 38.9063683, "categories": [["Cafes", "cafes"], ["Coffee & Tea", "coffee"]]}, {"rating": 4.5, "review_count": 464, "name": "Pitango Gelato", "longitude": -77.0218480378389, "shape": 136, "address": ["413 7th St NW"], "latitude": 38.8950448483229, "categories": [["Coffee & Tea", "coffee"], ["Ice Cream & Frozen Yogurt", "icecream"]]}, {"rating": 4.5, "review_count": 118, "name": "Martin Luther King, Jr. National Memorial", "longitude": -77.043737, "shape": 283, "address": ["1964 Independence Ave SW"], "latitude": 38.887015, "categories": [["Landmarks & Historical Buildings", "landmarks"]]}, {"rating": 4.5, "review_count": 203, "name": "A Litteri", "longitude": -76.9984665, "shape": 343, "address": ["517-519 Morse St NE"], "latitude": 38.9069595, "categories": [["Grocery", "grocery"], ["Delis", "delis"], ["Italian", "italian"]]}, {"rating": 4.5, "review_count": 58, "name": "Rosslyn Coffee & Deli", "longitude": -77.0701217651367, "shape": 451, "address": ["Lobby Level", "1101 Wilson Blvd"], "latitude": 38.8952164027178, "categories": [["Delis", "delis"], ["Coffee & Tea", "coffee"], ["Sandwiches", "sandwiches"]]}, {"rating": 4.5, "review_count": 131, "name": "Gravelly Point Park", "longitude": -77.04008102416991, "shape": 451, "address": ["George Washington Pkwy"], "latitude": 38.864439229583404, "categories": [["Parks", "parks"]]}, {"rating": 4.5, "review_count": 384, "name": "Woodland's Vegan Bistro", "longitude": -77.0232229, "shape": 204, "address": ["2928 Georgia Ave NW"], "latitude": 38.9278669, "categories": [["Vegan", "vegan"], ["Soul Food", "soulfood"]]}, {"rating": 4.0, "review_count": 1188, "name": "Blue Duck Tavern", "longitude": -77.0512, "shape": 36, "address": ["1201 24th St NW"], "latitude": 38.906052, "categories": [["American (Traditional)", "tradamerican"], ["American (New)", "newamerican"]]}, {"rating": 4.0, "review_count": 2577, "name": "Zaytinya", "longitude": -77.023483, "shape": 305, "address": ["701 9th St NW"], "latitude": 38.899044, "categories": [["Greek", "greek"], ["Turkish", "turkish"], ["Lebanese", "lebanese"]]}, {"rating": 4.5, "review_count": 74, "name": "Mother Rucker's Subs", "longitude": -76.9807532, "shape": 12, "address": ["1101 Bladensburg Rd NE"], "latitude": 38.9039032, "categories": [["Sandwiches", "sandwiches"]]}, {"rating": 4.5, "review_count": 275, "name": "Obelisk", "longitude": -77.045329, "shape": 437, "address": ["2029 P St NW"], "latitude": 38.909544, "categories": [["Italian", "italian"]]}, {"rating": 4.5, "review_count": 211, "name": "Ford's Theatre", "longitude": -77.025658, "shape": 305, "address": ["511 10th St NW"], "latitude": 38.896675, "categories": [["Performing Arts", "theater"], ["Landmarks & Historical Buildings", "landmarks"], ["Museums", "museums"]]}, {"rating": 4.5, "review_count": 326, "name": "National Portrait Gallery", "longitude": -77.022979259491, "shape": 305, "address": ["8th St & F St NW"], "latitude": 38.8975627717356, "categories": [["Landmarks & Historical Buildings", "landmarks"], ["Museums", "museums"]]}, {"rating": 4.0, "review_count": 1133, "name": "Le Diplomate", "longitude": -77.0318208, "shape": 359, "address": ["1601 14th Street NW"], "latitude": 38.9112078, "categories": [["Brasseries", "brasseries"], ["French", "french"], ["Cafes", "cafes"]]}, {"rating": 4.5, "review_count": 146, "name": "National Gallery of Art Sculpture Garden & Ice Rink", "longitude": -77.0223060250282, "shape": 283, "address": ["700 Constitution Ave NW"], "latitude": 38.8920447975397, "categories": [["Skating Rinks", "skatingrinks"], ["Art Galleries", "galleries"], ["Landmarks & Historical Buildings", "landmarks"]]}, {"rating": 4.5, "review_count": 208, "name": "National Archives and Records Administration", "longitude": -77.0221024, "shape": 283, "address": ["700 Pennsylvania Ave NW"], "latitude": 38.893158, "categories": [["Landmarks & Historical Buildings", "landmarks"], ["Museums", "museums"]]}, {"rating": 4.5, "review_count": 364, "name": "Wiseguy NY Pizza", "longitude": -77.0160423825012, "shape": 308, "address": ["300 Massachusetts Ave NW", "Ste 1"], "latitude": 38.899670106188, "categories": [["Pizza", "pizza"]]}, {"rating": 4.5, "review_count": 50, "name": "U.S. Capitol Building", "longitude": -77.0091455930616, "shape": 283, "address": ["E Capitol St and First St NW"], "latitude": 38.8898405915333, "categories": [["Landmarks & Historical Buildings", "landmarks"]]}, {"rating": 4.0, "review_count": 422, "name": "Corduroy", "longitude": -77.024361, "shape": 231, "address": ["1122 9th St NW"], "latitude": 38.905075, "categories": [["American (New)", "newamerican"]]}, {"rating": 4.5, "review_count": 296, "name": "Zenebech Injera", "longitude": -77.0205377, "shape": 441, "address": ["608 T St NW"], "latitude": 38.9154515, "categories": [["Ethiopian", "ethiopian"]]}, {"rating": 4.5, "review_count": 197, "name": "Pleasant Pops Farmhouse Market & Cafe", "longitude": -77.0410466194153, "shape": 233, "address": ["1781 Florida Ave NW", "Ste G"], "latitude": 38.9173326525253, "categories": [["Ice Cream & Frozen Yogurt", "icecream"], ["Coffee & Tea", "coffee"], ["Cafes", "cafes"]]}, {"rating": 4.5, "review_count": 123, "name": "Meridian Hill Park", "longitude": -77.0364902168512, "shape": 139, "address": ["16th St & Euclid St NW"], "latitude": 38.9232502877712, "categories": [["Parks", "parks"]]}, {"rating": 4.0, "review_count": 436, "name": "The Capital Grille", "longitude": -77.020194162501, "shape": 136, "address": ["601 Pennsylvania Ave NW"], "latitude": 38.893114024059, "categories": [["American (Traditional)", "tradamerican"], ["Steakhouses", "steak"], ["Seafood", "seafood"]]}, {"rating": 4.5, "review_count": 204, "name": "Los Hermanos", "longitude": -77.033783, "shape": 442, "address": ["1426 Park Rd NW"], "latitude": 38.930458, "categories": [["Dominican", "dominican"]]}, {"rating": 4.5, "review_count": 224, "name": "Indigo", "longitude": -77.002233, "shape": 408, "address": ["243 K St NE"], "latitude": 38.902205, "categories": [["Indian", "indpak"]]}, {"rating": 4.0, "review_count": 770, "name": "Thai X-ing", "longitude": -77.0189590454102, "shape": 310, "address": ["515 Florida Ave NW"], "latitude": 38.9152336120605, "categories": [["Thai", "thai"]]}, {"rating": 5.0, "review_count": 26, "name": "The White House Garden Tour", "longitude": -77.03605174804801, "shape": 283, "address": ["1600 Pensylvania Ave NW"], "latitude": 38.897530679051, "categories": [["Landmarks & Historical Buildings", "landmarks"], ["Tours", "tours"]]}, {"rating": 4.5, "review_count": 51, "name": "C&O Canal", "longitude": -77.0598754882812, "shape": 419, "address": ["1057 Thomas Jefferson St NW"], "latitude": 38.9043045043945, "categories": [["Local Flavor", "localflavor"], ["Landmarks & Historical Buildings", "landmarks"]]}, {"rating": 4.5, "review_count": 262, "name": "Sidamo Coffee and Tea", "longitude": -76.9999084472656, "shape": 340, "address": ["417 H St NE"], "latitude": 38.8999443054199, "categories": [["Coffee & Tea", "coffee"], ["Breakfast & Brunch", "breakfast_brunch"], ["Sandwiches", "sandwiches"]]}, {"rating": 4.5, "review_count": 276, "name": "DCity Smokehouse", "longitude": -77.009254, "shape": 358, "address": ["8 Florida Ave NW"], "latitude": 38.910887, "categories": [["Barbeque", "bbq"], ["Sandwiches", "sandwiches"]]}, {"rating": 4.5, "review_count": 36, "name": "Screen on the Green", "longitude": -77.04, "shape": 2, "address": ["The National Mall", "Between 8th & 14th Streets"], "latitude": 38.9, "categories": [["Local Flavor", "localflavor"], ["Festivals", "festivals"]]}, {"rating": 4.5, "review_count": 49, "name": "Stella's PopKern", "longitude": -77.04015, "shape": 104, "address": [], "latitude": 38.89781, "categories": [["Food Stands", "foodstands"], ["Street Vendors", "streetvendors"]]}, {"rating": 4.0, "review_count": 236, "name": "Juice Joint Caf\u00e9", "longitude": -77.0329208, "shape": 392, "address": ["1025 Vermont Ave NW"], "latitude": 38.9033012, "categories": [["Juice Bars & Smoothies", "juicebars"], ["Cafes", "cafes"], ["Caterers", "catering"]]}, {"rating": 4.0, "review_count": 375, "name": "Little Serow", "longitude": -77.0381317, "shape": 103, "address": ["1511 17th St NW"], "latitude": 38.9101181, "categories": [["Thai", "thai"]]}, {"rating": 4.5, "review_count": 249, "name": "Dolcezza", "longitude": -77.065033, "shape": 317, "address": ["1560 Wisconsin Ave NW"], "latitude": 38.9103203, "categories": [["Coffee & Tea", "coffee"], ["Gelato", "gelato"]]}, {"rating": 4.0, "review_count": 361, "name": "Dolcezza", "longitude": -77.0455962, "shape": 404, "address": ["1704 Connecticut Ave NW"], "latitude": 38.9128596, "categories": [["Ice Cream & Frozen Yogurt", "icecream"], ["Coffee & Tea", "coffee"]]}, {"rating": 5.0, "review_count": 21, "name": "Tomb of the Unknown Soldier", "longitude": -77.0723640918732, "shape": 451, "address": ["Memorial Dr"], "latitude": 38.8763904572735, "categories": [["Landmarks & Historical Buildings", "landmarks"]]}, {"rating": 4.0, "review_count": 237, "name": "Fiola Mare", "longitude": -77.060564, "shape": 419, "address": ["3050 K St NW", "Ste 101"], "latitude": 38.90223, "categories": [["Seafood", "seafood"], ["Italian", "italian"], ["Cocktail Bars", "cocktailbars"]]}, {"rating": 4.0, "review_count": 524, "name": "9:30 Club", "longitude": -77.023665130059, "shape": 25, "address": ["815 V St NW"], "latitude": 38.9178851722944, "categories": [["Music Venues", "musicvenues"], ["Dance Clubs", "danceclubs"], ["Bars", "bars"]]}, {"rating": 4.0, "review_count": 556, "name": "Rasika West End", "longitude": -77.0478002789335, "shape": 36, "address": ["1190 New Hampshire Ave NW"], "latitude": 38.90513484047, "categories": [["Indian", "indpak"]]}, {"rating": 4.5, "review_count": 352, "name": "Peregrine Espresso", "longitude": -76.99639691171699, "shape": 313, "address": ["660 Pennsylvania Ave SE"], "latitude": 38.885536325450005, "categories": [["Coffee & Tea", "coffee"]]}, {"rating": 4.5, "review_count": 49, "name": "DC-Donuts", "longitude": -76.9962845, "shape": 313, "address": ["225 7th St SE"], "latitude": 38.887001, "categories": [["Donuts", "donuts"], ["Coffee & Tea", "coffee"], ["Food Stands", "foodstands"]]}, {"rating": 4.5, "review_count": 370, "name": "Bakeshop", "longitude": -77.09272, "shape": 451, "address": ["1025 N Fillmore St", "Ste G"], "latitude": 38.885538, "categories": [["Desserts", "desserts"], ["Bakeries", "bakeries"], ["Coffee & Tea", "coffee"]]}, {"rating": 4.0, "review_count": 362, "name": "Filter Coffeehouse & Espresso Bar", "longitude": -77.0450974, "shape": 59, "address": ["1726 20th St NW"], "latitude": 38.913681, "categories": [["Coffee & Tea", "coffee"]]}, {"rating": 4.5, "review_count": 270, "name": "Joe's Seafood, Prime Steak & Stone Crab", "longitude": -77.0336676, "shape": 392, "address": ["750 15th St NW"], "latitude": 38.8998116, "categories": [["Seafood", "seafood"], ["Steakhouses", "steak"]]}, {"rating": 4.5, "review_count": 146, "name": "Crepes At The Market, Eastern Market", "longitude": -76.9961786270142, "shape": 313, "address": ["7th St SE and N Carolina Ave SE"], "latitude": 38.88735842456121, "categories": [["Creperies", "creperies"]]}, {"rating": 4.0, "review_count": 476, "name": "St. Arnold's On Jefferson", "longitude": -77.042786, "shape": 149, "address": ["1827 Jefferson Pl NW"], "latitude": 38.906654, "categories": [["Belgian", "belgian"], ["Pubs", "pubs"], ["American (Traditional)", "tradamerican"]]}, {"rating": 4.5, "review_count": 81, "name": "Choupi", "longitude": -77.0710578560829, "shape": 451, "address": ["1900 North Lynn St"], "latitude": 38.8972932100296, "categories": [["French", "french"], ["Street Vendors", "streetvendors"], ["Breakfast & Brunch", "breakfast_brunch"]]}, {"rating": 4.5, "review_count": 68, "name": "Three Fifty Bakery and Coffee Bar", "longitude": -77.038517, "shape": 178, "address": ["1926 17th St NW"], "latitude": 38.9166507, "categories": [["Desserts", "desserts"], ["Bakeries", "bakeries"], ["Coffee & Tea", "coffee"]]}, {"rating": 4.5, "review_count": 96, "name": "&pizza", "longitude": -77.032417, "shape": 392, "address": ["1400 K St NW"], "latitude": 38.902133, "categories": [["Pizza", "pizza"], ["Vegan", "vegan"], ["Vegetarian", "vegetarian"]]}, {"rating": 4.0, "review_count": 326, "name": "Tosca", "longitude": -77.027298, "shape": 305, "address": ["1112 F St NW"], "latitude": 38.8972054, "categories": [["Italian", "italian"]]}, {"rating": 4.0, "review_count": 454, "name": "Fast Gourmet", "longitude": -77.032356262207, "shape": 383, "address": ["1400 W St NW"], "latitude": 38.919017791748, "categories": [["Latin American", "latin"], ["Sandwiches", "sandwiches"], ["Burgers", "burgers"]]}, {"rating": 4.5, "review_count": 94, "name": "Puddin'", "longitude": -77.0362967, "shape": 383, "address": ["Eastern Market"], "latitude": 38.9191485, "categories": [["Cajun/Creole", "cajun"], ["Food Trucks", "foodtrucks"]]}, {"rating": 4.5, "review_count": 134, "name": "Amsterdam Falafelshop", "longitude": -77.032364, "shape": 207, "address": ["1830 14th St NW"], "latitude": 38.915138, "categories": [["Falafel", "falafel"], ["Vegetarian", "vegetarian"], ["Sandwiches", "sandwiches"]]}, {"rating": 4.5, "review_count": 107, "name": "Kokeb Ethiopian Restaurant", "longitude": -77.022903, "shape": 244, "address": ["3013 Georgia Ave NW"], "latitude": 38.928611, "categories": [["Ethiopian", "ethiopian"]]}, {"rating": 4.5, "review_count": 30, "name": "Brick & Mortar", "longitude": -77.024902, "shape": 305, "address": ["918 F St"], "latitude": 38.896999, "categories": [["Cocktail Bars", "cocktailbars"], ["Pubs", "pubs"], ["Wine Bars", "wine_bars"]]}, {"rating": 4.5, "review_count": 137, "name": "National Arboretum", "longitude": -76.9598312, "shape": 344, "address": ["3501 New York Ave NE"], "latitude": 38.9166908, "categories": [["Botanical Gardens", "gardens"], ["Parks", "parks"]]}, {"rating": 4.0, "review_count": 1146, "name": "Kabob Palace", "longitude": -77.0532913, "shape": 451, "address": ["2315 S Eads St"], "latitude": 38.852951, "categories": [["Afghan", "afghani"], ["Pakistani", "pakistani"]]}, {"rating": 4.0, "review_count": 188, "name": "M E Swing Coffee Roasters", "longitude": -77.039992236546, "shape": 104, "address": ["1702 G St NW"], "latitude": 38.898233819304, "categories": [["Coffee & Tea", "coffee"], ["Delis", "delis"]]}, {"rating": 4.5, "review_count": 97, "name": "Theodore Roosevelt Island", "longitude": -77.06537961959839, "shape": 419, "address": ["George Washington Pkwy"], "latitude": 38.8963353214565, "categories": [["Parks", "parks"]]}, {"rating": 4.0, "review_count": 583, "name": "Barcelona 14th Street", "longitude": -77.0321732623178, "shape": 397, "address": ["1622 14th St NW"], "latitude": 38.9121988051732, "categories": [["Tapas/Small Plates", "tapasmallplates"], ["Wine Bars", "wine_bars"], ["Spanish", "spanish"]]}, {"rating": 4.0, "review_count": 411, "name": "Tortino", "longitude": -77.027391, "shape": 135, "address": ["1228 11th St NW"], "latitude": 38.906536, "categories": [["Italian", "italian"]]}, {"rating": 4.0, "review_count": 265, "name": "Boundary Stone", "longitude": -77.012792823801, "shape": 18, "address": ["116 Rhode Island Ave NW"], "latitude": 38.915368820068, "categories": [["American (New)", "newamerican"], ["Pubs", "pubs"], ["Sandwiches", "sandwiches"]]}, {"rating": 4.0, "review_count": 306, "name": "Donburi", "longitude": -77.0427017211914, "shape": 100, "address": ["2438 18th N W"], "latitude": 38.9216156005859, "categories": [["Japanese", "japanese"]]}, {"rating": 4.0, "review_count": 5769, "name": "Founding Farmers", "longitude": -77.0446475212375, "shape": 361, "address": ["1924 Pennsylvania Ave NW"], "latitude": 38.9003166398788, "categories": [["American (Traditional)", "tradamerican"]]}, {"rating": 4.5, "review_count": 81, "name": "Taqueria Habanero", "longitude": -77.033089, "shape": 373, "address": ["3710 14th St NW"], "latitude": 38.937553, "categories": [["Mexican", "mexican"]]}, {"rating": 4.5, "review_count": 65, "name": "Cava Mezze Grill", "longitude": -77.022377, "shape": 305, "address": ["707 H St NW"], "latitude": 38.9000702, "categories": [["Mediterranean", "mediterranean"], ["Greek", "greek"]]}, {"rating": 4.0, "review_count": 155, "name": "Far East Taco Grille", "longitude": -77.0284509658813, "shape": 283, "address": ["Federal Triangle"], "latitude": 38.8943396257155, "categories": [["Asian Fusion", "asianfusion"], ["Food Trucks", "foodtrucks"]]}, {"rating": 4.5, "review_count": 83, "name": "Pho Junkies", "longitude": -77.0076370239258, "shape": 408, "address": ["Union Station"], "latitude": 38.8984311591187, "categories": [["Street Vendors", "streetvendors"], ["Vietnamese", "vietnamese"]]}, {"rating": 4.5, "review_count": 979, "name": "El Pollo Rico", "longitude": -77.1007538, "shape": 451, "address": ["932 N Kenmore St"], "latitude": 38.8838997, "categories": [["Latin American", "latin"], ["Peruvian", "peruvian"]]}, {"rating": 4.0, "review_count": 3309, "name": "Old Ebbitt Grill", "longitude": -77.033269, "shape": 305, "address": ["675 15th St NW"], "latitude": 38.898139, "categories": [["Bars", "bars"], ["Breakfast & Brunch", "breakfast_brunch"], ["Sandwiches", "sandwiches"]]}, {"rating": 4.5, "review_count": 30, "name": "Dram & Grain", "longitude": -77.041306, "shape": 233, "address": ["2007 18th St NW"], "latitude": 38.917397, "categories": [["Cocktail Bars", "cocktailbars"]]}, {"rating": 4.0, "review_count": 221, "name": "White Apron Specialty Sandwiches", "longitude": -77.0268867626984, "shape": 305, "address": ["445 11th St NW"], "latitude": 38.8957126973629, "categories": [["Sandwiches", "sandwiches"], ["Delis", "delis"]]}, {"rating": 4.5, "review_count": 104, "name": "Quill", "longitude": -77.036972, "shape": 149, "address": ["1200 16th St NW"], "latitude": 38.9059906, "categories": [["Bars", "bars"], ["American (New)", "newamerican"]]}, {"rating": 4.0, "review_count": 456, "name": "1789 Restaurant", "longitude": -77.0704523699829, "shape": 72, "address": ["1226 36th St NW"], "latitude": 38.9060759852994, "categories": [["American (Traditional)", "tradamerican"]]}, {"rating": 4.0, "review_count": 361, "name": "Red Hook Lobster Pound", "longitude": -77.0385761801474, "shape": 2, "address": [], "latitude": 38.902352411148, "categories": [["Seafood", "seafood"], ["Food Trucks", "foodtrucks"]]}, {"rating": 4.5, "review_count": 222, "name": "Sushi Capitol", "longitude": -77.001264, "shape": 428, "address": ["325 Pennsylvania Ave SE"], "latitude": 38.886401, "categories": [["Japanese", "japanese"], ["Sushi Bars", "sushi"]]}, {"rating": 4.5, "review_count": 137, "name": "The Wydown Coffee Bar", "longitude": -77.032127, "shape": 207, "address": ["1924 14th St NW"], "latitude": 38.916606, "categories": [["Coffee & Tea", "coffee"]]}, {"rating": 4.5, "review_count": 96, "name": "Darnell's Bar", "longitude": -77.025253, "shape": 436, "address": ["944 Florida Ave NW"], "latitude": 38.919315, "categories": [["Lounges", "lounges"], ["Dive Bars", "divebars"]]}, {"rating": 4.0, "review_count": 591, "name": "Luke's Lobster", "longitude": -77.0205078, "shape": 136, "address": ["624 E St NW"], "latitude": 38.8959961, "categories": [["Seafood", "seafood"]]}, {"rating": 4.0, "review_count": 586, "name": "City Tap House", "longitude": -77.0236283730791, "shape": 305, "address": ["901 I St NW"], "latitude": 38.9010558837917, "categories": [["Gastropubs", "gastropubs"], ["Bars", "bars"], ["American (New)", "newamerican"]]}, {"rating": 4.0, "review_count": 228, "name": "Food Corner Kabob House", "longitude": -77.0462189, "shape": 404, "address": ["2029 P St NW"], "latitude": 38.9099007, "categories": [["Afghan", "afghani"]]}, {"rating": 4.0, "review_count": 501, "name": "Pearl Dive Oyster Palace", "longitude": -77.032363, "shape": 397, "address": ["1612 14th St NW"], "latitude": 38.911628, "categories": [["Seafood", "seafood"], ["Breakfast & Brunch", "breakfast_brunch"]]}, {"rating": 4.5, "review_count": 77, "name": "Copycat Co", "longitude": -76.9910278320312, "shape": 117, "address": ["1110 H St NE"], "latitude": 38.9004554748535, "categories": [["Cocktail Bars", "cocktailbars"], ["Chinese", "chinese"]]}, {"rating": 4.0, "review_count": 1082, "name": "Filomena Ristorante", "longitude": -77.062462, "shape": 419, "address": ["1063 Wisconsin Ave NW"], "latitude": 38.904404, "categories": [["Italian", "italian"], ["Buffets", "buffets"]]}, {"rating": 4.5, "review_count": 136, "name": "Rappahannock Oyster Bar", "longitude": -76.9978333, "shape": 343, "address": ["1309 5th St NE"], "latitude": 38.9087715, "categories": [["Seafood", "seafood"], ["Bars", "bars"]]}, {"rating": 4.0, "review_count": 319, "name": "SUNdeVICH", "longitude": -77.024359310674, "shape": 23, "address": ["1314 9th St NW"], "latitude": 38.90776373566, "categories": [["Sandwiches", "sandwiches"]]}, {"rating": 4.5, "review_count": 241, "name": "The Atlas Room", "longitude": -76.992084, "shape": 247, "address": ["1015 H St NE"], "latitude": 38.900084, "categories": [["Bars", "bars"], ["American (New)", "newamerican"]]}, {"rating": 4.5, "review_count": 69, "name": "Elizabeth's Gone Raw", "longitude": -77.03125, "shape": 392, "address": ["1341 L St NW"], "latitude": 38.904018, "categories": [["Vegan", "vegan"], ["Live/Raw Food", "raw_food"]]}, {"rating": 4.0, "review_count": 420, "name": "Bourbon Steak", "longitude": -77.057556, "shape": 419, "address": ["Four Seasons Garden Terrace", "2800 Pennsylvania Ave NW"], "latitude": 38.904488, "categories": [["Steakhouses", "steak"]]}, {"rating": 4.5, "review_count": 27, "name": "Albert Einstein Memorial", "longitude": -77.047707, "shape": 283, "address": ["2101 Constitution Ave NW"], "latitude": 38.892944, "categories": [["Landmarks & Historical Buildings", "landmarks"]]}, {"rating": 4.5, "review_count": 265, "name": "Pedro & Vinny's", "longitude": -77.084671, "shape": 451, "address": ["2599 Columbia Pike"], "latitude": 38.8633194, "categories": [["Mexican", "mexican"], ["Food Trucks", "foodtrucks"]]}, {"rating": 4.0, "review_count": 342, "name": "Fiola", "longitude": -77.020794, "shape": 136, "address": ["601 Pennsylvania Ave NW"], "latitude": 38.894039, "categories": [["Italian", "italian"]]}, {"rating": 4.5, "review_count": 43, "name": "Georgetown Waterfront Park", "longitude": -77.06318688688201, "shape": 72, "address": ["Potomac River", "3000 K St NW"], "latitude": 38.902425183455, "categories": [["Landmarks & Historical Buildings", "landmarks"]]}, {"rating": 4.0, "review_count": 169, "name": "ching ching CHA", "longitude": -77.062462, "shape": 419, "address": ["1063 Wisconsin Ave NW"], "latitude": 38.904404, "categories": [["Tea Rooms", "tea"], ["Chinese", "chinese"]]}, {"rating": 4.5, "review_count": 176, "name": "Dama Pastry and Restaurant", "longitude": -77.070549, "shape": 451, "address": ["1503 Columbia Pike"], "latitude": 38.8670006, "categories": [["Ethiopian", "ethiopian"]]}, {"rating": 4.5, "review_count": 50, "name": "Harrar Coffee & Roastery", "longitude": -77.0232442503307, "shape": 204, "address": ["2904 Georgia Ave NW"], "latitude": 38.9273769324706, "categories": [["Coffee & Tea", "coffee"], ["Ethiopian", "ethiopian"]]}, {"rating": 4.5, "review_count": 140, "name": "Mangialardo & Sons", "longitude": -76.987749, "shape": 189, "address": ["1317 Pennsylvania Ave SE"], "latitude": 38.880844, "categories": [["Sandwiches", "sandwiches"], ["Italian", "italian"]]}, {"rating": 4.5, "review_count": 67, "name": "Sankofa Bookstore and Cafe", "longitude": -77.02315, "shape": 257, "address": ["2714 Georgia Ave NW"], "latitude": 38.925561, "categories": [["Coffee & Tea", "coffee"], ["Beer, Wine & Spirits", "beer_and_wine"], ["Sandwiches", "sandwiches"]]}, {"rating": 4.5, "review_count": 109, "name": "KoChix", "longitude": -77.0163538679481, "shape": 152, "address": ["400 Florida Ave NW"], "latitude": 38.9137428308672, "categories": [["Korean", "korean"]]}, {"rating": 4.0, "review_count": 121, "name": "Pedro and Vinny's", "longitude": -77.034803148323, "shape": 360, "address": ["1500 K St NW"], "latitude": 38.902375082285, "categories": [["Vegetarian", "vegetarian"], ["Mexican", "mexican"], ["Food Trucks", "foodtrucks"]]}, {"rating": 4.5, "review_count": 98, "name": "Lot 38 Espresso Bar", "longitude": -77.0036673545837, "shape": 52, "address": ["1001 2nd St SE"], "latitude": 38.8776829823059, "categories": [["Coffee & Tea", "coffee"]]}, {"rating": 4.5, "review_count": 151, "name": "Fish in the Hood", "longitude": -77.023758, "shape": 241, "address": ["3601 Georgia Ave NW"], "latitude": 38.93465, "categories": [["Seafood", "seafood"], ["Southern", "southern"]]}, {"rating": 4.5, "review_count": 160, "name": "Cava Mezze Grill", "longitude": -77.032509373283, "shape": 225, "address": ["3105 14th St NW"], "latitude": 38.929320637882, "categories": [["Gluten-Free", "gluten_free"], ["Vegetarian", "vegetarian"], ["Greek", "greek"]]}, {"rating": 4.5, "review_count": 77, "name": "City Place Cafe", "longitude": -77.0380936, "shape": 2, "address": ["1101 17th St NW"], "latitude": 38.90411, "categories": [["Mediterranean", "mediterranean"], ["Sandwiches", "sandwiches"]]}, {"rating": 4.0, "review_count": 321, "name": "Siroc Restaurant", "longitude": -77.033287, "shape": 392, "address": ["915 15th St NW"], "latitude": 38.901821, "categories": [["Italian", "italian"]]}, {"rating": 4.0, "review_count": 320, "name": "Duke's Grocery", "longitude": -77.038134, "shape": 103, "address": ["1513 17th St NW"], "latitude": 38.9101969, "categories": [["Bars", "bars"], ["Sandwiches", "sandwiches"]]}, {"rating": 4.5, "review_count": 90, "name": "Compass Coffee", "longitude": -77.0215683, "shape": 441, "address": ["1535 7th St NW"], "latitude": 38.9105988, "categories": [["Coffee & Tea", "coffee"]]}, {"rating": 4.0, "review_count": 475, "name": "BLT Steak", "longitude": -77.037552, "shape": 2, "address": ["1625 I St NW"], "latitude": 38.901688, "categories": [["Steakhouses", "steak"], ["Bars", "bars"]]}, {"rating": 4.5, "review_count": 50, "name": "Denson Liquor Bar", "longitude": -77.0201263427734, "shape": 136, "address": ["600 F St NW"], "latitude": 38.8970680236816, "categories": [["Cocktail Bars", "cocktailbars"]]}, {"rating": 4.0, "review_count": 92, "name": "Rolling Ficelle", "longitude": -77.03179, "shape": 392, "address": [], "latitude": 38.90472, "categories": [["Food Stands", "foodstands"]]}, {"rating": 4.0, "review_count": 1121, "name": "Tabard Inn Restaurant", "longitude": -77.0399932861328, "shape": 149, "address": ["1739 N St NW"], "latitude": 38.9075241088867, "categories": [["American (Traditional)", "tradamerican"], ["Breakfast & Brunch", "breakfast_brunch"]]}, {"rating": 4.0, "review_count": 267, "name": "The Red Hen", "longitude": -77.0121723, "shape": 18, "address": ["1822 1st St NW"], "latitude": 38.9148374, "categories": [["Italian", "italian"]]}, {"rating": 4.0, "review_count": 1177, "name": "Toki Underground", "longitude": -76.9890601862829, "shape": 117, "address": ["1234 H St NE"], "latitude": 38.9002596732333, "categories": [["Taiwanese", "taiwanese"], ["Ramen", "ramen"]]}, {"rating": 4.0, "review_count": 379, "name": "Pho Viet", "longitude": -77.0323792, "shape": 226, "address": ["3513 14th St NW"], "latitude": 38.9350891, "categories": [["Vietnamese", "vietnamese"]]}, {"rating": 4.0, "review_count": 83, "name": "National Postal Museum", "longitude": -77.008186, "shape": 408, "address": ["2 Massachusetts Ave NE"], "latitude": 38.89817, "categories": [["Landmarks & Historical Buildings", "landmarks"], ["Museums", "museums"], ["Art Galleries", "galleries"]]}, {"rating": 4.0, "review_count": 753, "name": "Birch & Barley", "longitude": -77.0315798067514, "shape": 435, "address": ["1337 14th St NW"], "latitude": 38.9084866130077, "categories": [["American (New)", "newamerican"], ["Breakfast & Brunch", "breakfast_brunch"]]}, {"rating": 4.0, "review_count": 670, "name": "Estadio", "longitude": -77.032125473756, "shape": 397, "address": ["1520 14th St NW"], "latitude": 38.909976620016, "categories": [["Spanish", "spanish"], ["Tapas/Small Plates", "tapasmallplates"]]}, {"rating": 4.0, "review_count": 701, "name": "Proof Restaurant", "longitude": -77.0225754, "shape": 305, "address": ["775 G St NW"], "latitude": 38.8985825, "categories": [["American (New)", "newamerican"], ["Wine Bars", "wine_bars"]]}, {"rating": 4.0, "review_count": 842, "name": "il Canale", "longitude": -77.060944, "shape": 419, "address": ["1063 31st St NW"], "latitude": 38.904404, "categories": [["Italian", "italian"], ["Pizza", "pizza"]]}, {"rating": 4.0, "review_count": 179, "name": "Roti Mediterranean Grill", "longitude": -77.040947, "shape": 2, "address": ["1747 Pennsylvania Ave NW"], "latitude": 38.8996582, "categories": [["Mediterranean", "mediterranean"]]}, {"rating": 4.0, "review_count": 364, "name": "Vace", "longitude": -77.0572900772095, "shape": 379, "address": ["3315 Connecticut Ave NW"], "latitude": 38.9340759716828, "categories": [["Pizza", "pizza"], ["Delis", "delis"], ["Italian", "italian"]]}, {"rating": 4.5, "review_count": 53, "name": "Spice", "longitude": -77.094757, "shape": 451, "address": ["3033 Wilson Blvd"], "latitude": 38.887937, "categories": [["Mediterranean", "mediterranean"], ["Italian", "italian"], ["Sandwiches", "sandwiches"]]}, {"rating": 4.0, "review_count": 954, "name": "ChurchKey", "longitude": -77.0314789, "shape": 435, "address": ["1337 14th St NW", "2nd Fl"], "latitude": 38.9084816, "categories": [["American (New)", "newamerican"], ["Lounges", "lounges"]]}, {"rating": 4.5, "review_count": 106, "name": "Bacio Pizzeria", "longitude": -77.011701, "shape": 18, "address": ["81 Seaton Pl NW"], "latitude": 38.91494, "categories": [["Pizza", "pizza"], ["Italian", "italian"]]}, {"rating": 4.0, "review_count": 1231, "name": "Ray's The Steaks", "longitude": -77.0867072045803, "shape": 451, "address": ["The Navy League Building", "2300 Wilson Blvd"], "latitude": 38.8909269869328, "categories": [["Steakhouses", "steak"]]}, {"rating": 4.0, "review_count": 834, "name": "Cava Mezze", "longitude": -76.9953384, "shape": 265, "address": ["527 8th St SE"], "latitude": 38.8818817, "categories": [["Greek", "greek"], ["Tapas/Small Plates", "tapasmallplates"]]}, {"rating": 4.0, "review_count": 176, "name": "Bulgogi Cart", "longitude": -77.0320636032104, "shape": 392, "address": ["1400 L St"], "latitude": 38.9037735542227, "categories": [["Korean", "korean"], ["Food Stands", "foodstands"]]}, {"rating": 4.0, "review_count": 94, "name": "Native Foods Cafe", "longitude": -77.022384, "shape": 305, "address": ["701 Pennsylvania Ave NW"], "latitude": 38.894424, "categories": [["Vegan", "vegan"], ["Vegetarian", "vegetarian"]]}, {"rating": 4.5, "review_count": 132, "name": "MGM Roast Beef", "longitude": -76.9933701, "shape": 299, "address": ["905 Brentwood Road NE"], "latitude": 38.9173851, "categories": [["Sandwiches", "sandwiches"]]}, {"rating": 4.0, "review_count": 734, "name": "The Pig", "longitude": -77.032372, "shape": 7, "address": ["1320 14th St NW"], "latitude": 38.907948, "categories": [["American (Traditional)", "tradamerican"]]}, {"rating": 4.0, "review_count": 634, "name": "District Taco", "longitude": -77.030158996582, "shape": 305, "address": ["1309 F St NW"], "latitude": 38.8975982666016, "categories": [["Mexican", "mexican"]]}, {"rating": 4.5, "review_count": 75, "name": "The Celtic House Irish Pub & Restaurant", "longitude": -77.0842972, "shape": 451, "address": ["2500 Columbia Pike"], "latitude": 38.8629913, "categories": [["Irish", "irish"], ["Irish Pub", "irish_pubs"]]}, {"rating": 4.5, "review_count": 183, "name": "Politics & Prose", "longitude": -77.0695495605469, "shape": 170, "address": ["5015 Connecticut Ave NW"], "latitude": 38.9555015563965, "categories": [["Bookstores", "bookstores"], ["Coffee & Tea", "coffee"]]}, {"rating": 4.0, "review_count": 399, "name": "Tortilla Cafe", "longitude": -76.995811, "shape": 313, "address": ["210 7th St SE"], "latitude": 38.886967, "categories": [["Latin American", "latin"], ["Mexican", "mexican"]]}, {"rating": 4.0, "review_count": 210, "name": "So's Your Mom", "longitude": -77.0438309, "shape": 53, "address": ["1831 Columbia Rd NW"], "latitude": 38.921711, "categories": [["Delis", "delis"], ["Specialty Food", "gourmet"], ["Sandwiches", "sandwiches"]]}, {"rating": 4.5, "review_count": 52, "name": "Water Park Cafe", "longitude": -77.0487920575212, "shape": 451, "address": ["1601 Crystal Dr"], "latitude": 38.8584079912071, "categories": [["Street Vendors", "streetvendors"], ["Egyptian", "egyptian"]]}, {"rating": 4.0, "review_count": 1034, "name": "Brasserie Beck", "longitude": -77.027234484939, "shape": 392, "address": ["1101 K St NW"], "latitude": 38.902816620504, "categories": [["Belgian", "belgian"], ["Modern European", "modern_european"]]}, {"rating": 4.0, "review_count": 140, "name": "The Coffee Bar", "longitude": -77.028282, "shape": 107, "address": ["1201 S St NW"], "latitude": 38.914322, "categories": [["Coffee & Tea", "coffee"]]}, {"rating": 4.0, "review_count": 1005, "name": "Tryst", "longitude": -77.0422974, "shape": 99, "address": ["2459 18th St NW"], "latitude": 38.9221153, "categories": [["Lounges", "lounges"], ["Coffee & Tea", "coffee"], ["American (Traditional)", "tradamerican"]]}, {"rating": 4.0, "review_count": 634, "name": "The Italian Store", "longitude": -77.0963516, "shape": 451, "address": ["3123 Lee Hwy"], "latitude": 38.8966293, "categories": [["Delis", "delis"], ["Grocery", "grocery"], ["Italian", "italian"], ["Pizza", "pizza"]]}, {"rating": 4.0, "review_count": 665, "name": "The Gibson", "longitude": -77.031585, "shape": 436, "address": ["2009 14th St NW"], "latitude": 38.917369, "categories": [["Lounges", "lounges"]]}, {"rating": 4.0, "review_count": 160, "name": "Triple B Fresh", "longitude": -77.0436065962981, "shape": 188, "address": ["1506 19th St NW"], "latitude": 38.9107260170919, "categories": [["Korean", "korean"], ["Vegetarian", "vegetarian"]]}, {"rating": 4.0, "review_count": 731, "name": "Sakuramen", "longitude": -77.041985, "shape": 99, "address": ["2441 18th St NW"], "latitude": 38.92157, "categories": [["Asian Fusion", "asianfusion"], ["Ramen", "ramen"], ["Korean", "korean"]]}, {"rating": 4.0, "review_count": 873, "name": "Central Michel Richard", "longitude": -77.0269938325748, "shape": 305, "address": ["1001 Pennsylvania Ave NW"], "latitude": 38.8948927048723, "categories": [["American (New)", "newamerican"], ["French", "french"], ["Bars", "bars"]]}, {"rating": 4.0, "review_count": 382, "name": "Red Derby", "longitude": -77.0328196, "shape": 373, "address": ["3718 14th St NW"], "latitude": 38.9377212, "categories": [["Dive Bars", "divebars"], ["Breakfast & Brunch", "breakfast_brunch"], ["Burgers", "burgers"]]}, {"rating": 4.0, "review_count": 782, "name": "Hank's Oyster Bar", "longitude": -77.038207, "shape": 103, "address": ["1624 Q St NW"], "latitude": 38.9109878, "categories": [["Seafood", "seafood"], ["Lounges", "lounges"]]}, {"rating": 4.0, "review_count": 461, "name": "Boqueria", "longitude": -77.0431399, "shape": 149, "address": ["1837 M Street NW"], "latitude": 38.905921, "categories": [["Tapas Bars", "tapas"], ["Spanish", "spanish"]]}, {"rating": 4.0, "review_count": 368, "name": "Bistro Cacao", "longitude": -77.000959, "shape": 187, "address": ["320 Massachusetts Ave NE"], "latitude": 38.894502, "categories": [["French", "french"], ["Brasseries", "brasseries"]]}, {"rating": 4.5, "review_count": 159, "name": "Le Mirch", "longitude": -77.046171, "shape": 404, "address": ["1736 Connecticut Ave NW"], "latitude": 38.913702, "categories": [["Indian", "indpak"]]}, {"rating": 4.0, "review_count": 231, "name": "El Rinconcito Cafe", "longitude": -77.0266571, "shape": 231, "address": ["1129 11th St NW"], "latitude": 38.9054489, "categories": [["Latin American", "latin"]]}, {"rating": 4.5, "review_count": 311, "name": "Makoto Restaurant", "longitude": -77.0963974, "shape": 10, "address": ["4822 MacArthur Blvd NW"], "latitude": 38.9166908, "categories": [["Japanese", "japanese"]]}, {"rating": 5.0, "review_count": 12, "name": "Henry the IV Part I Presented by the Shakespeare Theatre Company", "longitude": -77.0204687, "shape": 136, "address": ["610 F St NW"], "latitude": 38.8971453, "categories": [["Yelp Events", "yelpevents"]]}, {"rating": 4.0, "review_count": 978, "name": "Pho 75", "longitude": -77.0788574, "shape": 451, "address": ["1721 Wilson Blvd"], "latitude": 38.8941917, "categories": [["Vietnamese", "vietnamese"]]}, {"rating": 4.0, "review_count": 180, "name": "Luke's Lobster", "longitude": -77.065017, "shape": 147, "address": ["1211 Potomac St NW"], "latitude": 38.9055279, "categories": [["Seafood", "seafood"]]}, {"rating": 4.0, "review_count": 1114, "name": "Co Co Sala", "longitude": -77.0251846, "shape": 305, "address": ["929 F St NW"], "latitude": 38.8974762, "categories": [["American (New)", "newamerican"], ["Chocolatiers & Shops", "chocolate"], ["Lounges", "lounges"]]}, {"rating": 4.0, "review_count": 386, "name": "Acqua Al 2", "longitude": -76.9960346, "shape": 313, "address": ["212 7th St SE"], "latitude": 38.8868532, "categories": [["Italian", "italian"]]}, {"rating": 4.0, "review_count": 78, "name": "Korean Food Cart", "longitude": -77.0330582, "shape": 392, "address": ["1425 K St NW"], "latitude": 38.9029083, "categories": [["Korean", "korean"], ["Food Stands", "foodstands"]]}, {"rating": 4.5, "review_count": 208, "name": "Mi Cuba Cafe", "longitude": -77.033288, "shape": 442, "address": ["1424 Park Rd NW"], "latitude": 38.9304468, "categories": [["Cuban", "cuban"]]}, {"rating": 4.0, "review_count": 234, "name": "Oby Lee", "longitude": -77.0942601, "shape": 451, "address": ["The Reserve At Clarendon Centre", "3000 N Washington Blvd"], "latitude": 38.8850163, "categories": [["Coffee & Tea", "coffee"], ["Wineries", "wineries"], ["Gluten-Free", "gluten_free"]]}, {"rating": 4.0, "review_count": 2244, "name": "Matchbox Chinatown", "longitude": -77.0225372, "shape": 305, "address": ["713 H St NW"], "latitude": 38.9000511, "categories": [["Pizza", "pizza"], ["Bars", "bars"], ["American (New)", "newamerican"]]}, {"rating": 4.0, "review_count": 189, "name": "Chop't Creative Salad Company", "longitude": -77.0281084117056, "shape": 305, "address": ["618 12th St NW"], "latitude": 38.8979067521453, "categories": [["Sandwiches", "sandwiches"], ["Salad", "salad"]]}, {"rating": 4.5, "review_count": 81, "name": "Harold Black", "longitude": -76.995808, "shape": 313, "address": ["212 7th St SE"], "latitude": 38.886856, "categories": [["Lounges", "lounges"], ["Cocktail Bars", "cocktailbars"]]}, {"rating": 4.0, "review_count": 57, "name": "Woodward Takeout Food", "longitude": -77.0329132, "shape": 392, "address": ["1426 H St NW"], "latitude": 38.9000664, "categories": [["American (New)", "newamerican"]]}, {"rating": 4.0, "review_count": 194, "name": "Dan's Cafe", "longitude": -77.041496, "shape": 99, "address": ["2315 18th St NW"], "latitude": 38.920113, "categories": [["Restaurants", "restaurants"], ["Dive Bars", "divebars"]]}, {"rating": 5.0, "review_count": 12, "name": "CMYE: Yelp's Taste of the Philippines at Purple Patch", "longitude": -77.0376205, "shape": 303, "address": ["3155 Mt Pleasant St NW"], "latitude": 38.9305687, "categories": [["Yelp Events", "yelpevents"]]}, {"rating": 4.0, "review_count": 393, "name": "Galaxy Hut", "longitude": -77.090933, "shape": 451, "address": ["2711 Wilson Blvd"], "latitude": 38.8895389, "categories": [["Dive Bars", "divebars"], ["Vegetarian", "vegetarian"], ["Music Venues", "musicvenues"]]}, {"rating": 4.0, "review_count": 233, "name": "Las Canteras", "longitude": -77.0414428710938, "shape": 99, "address": ["2307 18th St NW", "Adams Morgan"], "latitude": 38.9199523925781, "categories": [["Latin American", "latin"], ["Peruvian", "peruvian"]]}, {"rating": 4.0, "review_count": 1237, "name": "Busboys and Poets", "longitude": -77.0317790820735, "shape": 436, "address": ["2021 14th St NW"], "latitude": 38.9179629102425, "categories": [["Breakfast & Brunch", "breakfast_brunch"], ["Vegan", "vegan"], ["Coffee & Tea", "coffee"]]}, {"rating": 4.0, "review_count": 82, "name": "Maketto", "longitude": -76.9866562, "shape": 230, "address": ["1351 H St NE"], "latitude": 38.8999214, "categories": [["Cafes", "cafes"], ["Shopping Centers", "shoppingcenters"]]}, {"rating": 4.0, "review_count": 204, "name": "Astor Mediterranean", "longitude": -77.043808, "shape": 53, "address": ["1829 Columbia Rd NW"], "latitude": 38.9217491, "categories": [["Greek", "greek"], ["Mediterranean", "mediterranean"], ["Middle Eastern", "mideastern"]]}, {"rating": 4.5, "review_count": 148, "name": "Thip Khao", "longitude": -77.0328522, "shape": 97, "address": ["3462 14th St NW"], "latitude": 38.9329414, "categories": [["Laotian", "laotian"]]}, {"rating": 4.0, "review_count": 154, "name": "U.S. Capitol Visitor Center", "longitude": -77.0071086719297, "shape": 283, "address": ["East Capitol St, NE and 1st St, NE"], "latitude": 38.8900513902876, "categories": [["Museums", "museums"], ["Landmarks & Historical Buildings", "landmarks"]]}, {"rating": 4.5, "review_count": 48, "name": "Pentagon Memorial", "longitude": -77.059426280025, "shape": 451, "address": ["1 Rotary Rd"], "latitude": 38.869727221572, "categories": [["Landmarks & Historical Buildings", "landmarks"]]}, {"rating": 4.0, "review_count": 878, "name": "Acadiana", "longitude": -77.024475868215, "shape": 392, "address": ["901 New York Ave NW"], "latitude": 38.902252636206, "categories": [["Cajun/Creole", "cajun"]]}, {"rating": 4.0, "review_count": 619, "name": "Black Salt", "longitude": -77.096481, "shape": 10, "address": ["4883 MacArthur Blvd NW"], "latitude": 38.91787, "categories": [["Seafood", "seafood"], ["Breakfast & Brunch", "breakfast_brunch"], ["Seafood Markets", "seafoodmarkets"], ["Bars", "bars"]]}, {"rating": 4.5, "review_count": 106, "name": "LeoNora Bakery", "longitude": -77.097106594015, "shape": 451, "address": ["1108 N Irving St"], "latitude": 38.886320812431, "categories": [["Bakeries", "bakeries"], ["Coffee & Tea", "coffee"]]}, {"rating": 4.0, "review_count": 79, "name": "Habesha Market and Carry-out", "longitude": -77.0236587524414, "shape": 107, "address": ["1919 9th St NW"], "latitude": 38.9163589477539, "categories": [["Ethiopian", "ethiopian"]]}, {"rating": 4.0, "review_count": 554, "name": "Cava Mezze", "longitude": -77.0934710651636, "shape": 451, "address": ["2940 Clarendon Blvd"], "latitude": 38.8876734673977, "categories": [["Tapas/Small Plates", "tapasmallplates"], ["Greek", "greek"]]}, {"rating": 4.0, "review_count": 230, "name": "Izakaya Seki", "longitude": -77.0277863, "shape": 436, "address": ["1117 V St NW"], "latitude": 38.9183197, "categories": [["Japanese", "japanese"]]}, {"rating": 4.5, "review_count": 21, "name": "Nonna's Kitchen", "longitude": -77.0285797119141, "shape": 107, "address": ["1212 U St NW"], "latitude": 38.9167366027832, "categories": [["Italian", "italian"], ["Bars", "bars"]]}, {"rating": 4.5, "review_count": 141, "name": "Fettoosh", "longitude": -77.122139, "shape": 451, "address": ["5100 Wilson Blvd"], "latitude": 38.877938, "categories": [["Middle Eastern", "mideastern"], ["Moroccan", "moroccan"]]}, {"rating": 4.0, "review_count": 228, "name": "Mari Vanna", "longitude": -77.0404587, "shape": 2, "address": ["1141 Connecticut Ave NW"], "latitude": 38.9051704, "categories": [["Russian", "russian"]]}, {"rating": 4.0, "review_count": 548, "name": "Julia's Empanadas", "longitude": -77.041168, "shape": 149, "address": ["1221 Connecticut Ave NW"], "latitude": 38.906624, "categories": [["Latin American", "latin"]]}, {"rating": 4.0, "review_count": 309, "name": "Astor Mediterranean", "longitude": -77.086176, "shape": 451, "address": ["2300 N Pershing Dr"], "latitude": 38.880594, "categories": [["Greek", "greek"], ["Mediterranean", "mediterranean"]]}, {"rating": 4.0, "review_count": 398, "name": "Ambar", "longitude": -76.995338, "shape": 265, "address": ["523 8th St SE"], "latitude": 38.882022, "categories": [["Modern European", "modern_european"]]}, {"rating": 4.5, "review_count": 992, "name": "Pupatella", "longitude": -77.1223423629999, "shape": 451, "address": ["5104 Wilson Blvd"], "latitude": 38.8778411597013, "categories": [["Pizza", "pizza"], ["Italian", "italian"]]}, {"rating": 4.0, "review_count": 622, "name": "Matchbox Capitol Hill", "longitude": -76.995338, "shape": 265, "address": ["521 8th St SE"], "latitude": 38.882095, "categories": [["Pizza", "pizza"], ["American (New)", "newamerican"]]}, {"rating": 4.0, "review_count": 410, "name": "Union Station", "longitude": -77.00621, "shape": 408, "address": ["50 Massachusetts Ave NE"], "latitude": 38.897502, "categories": [["Landmarks & Historical Buildings", "landmarks"], ["Public Transportation", "publictransport"], ["Train Stations", "trainstations"]]}, {"rating": 4.0, "review_count": 1191, "name": "Bistrot Du Coin", "longitude": -77.046112, "shape": 404, "address": ["1738 Connecticut Ave NW"], "latitude": 38.913852, "categories": [["French", "french"], ["Belgian", "belgian"]]}, {"rating": 4.0, "review_count": 538, "name": "Nando's Peri-Peri", "longitude": -77.041836565245, "shape": 149, "address": ["1210 18th St NW"], "latitude": 38.9061932661934, "categories": [["Portuguese", "portuguese"], ["South African", "southafrican"]]}, {"rating": 4.0, "review_count": 122, "name": "Off The Record", "longitude": -77.0365190505981, "shape": 360, "address": ["The  Hay-Adams", "800 16th St NW"], "latitude": 38.9003014958759, "categories": [["Bars", "bars"], ["American (New)", "newamerican"]]}, {"rating": 4.5, "review_count": 422, "name": "Cheesetique", "longitude": -77.0587006, "shape": 451, "address": ["2411 Mount Vernon Ave"], "latitude": 38.8272705, "categories": [["Cheese Shops", "cheese"], ["Sandwiches", "sandwiches"], ["Bars", "bars"]]}, {"rating": 4.0, "review_count": 296, "name": "Tico", "longitude": -77.032394, "shape": 207, "address": ["1926 14th St NW"], "latitude": 38.916444, "categories": [["Mexican", "mexican"], ["Tapas/Small Plates", "tapasmallplates"], ["Latin American", "latin"]]}, {"rating": 4.0, "review_count": 230, "name": "The Queen Vic", "longitude": -76.989861, "shape": 117, "address": ["1206 H St NE"], "latitude": 38.900417, "categories": [["Pubs", "pubs"], ["British", "british"], ["Fish & Chips", "fishnchips"]]}, {"rating": 4.0, "review_count": 119, "name": "Carving Room", "longitude": -77.0159978837029, "shape": 308, "address": ["300 Massachusetts Ave NW"], "latitude": 38.8992582619176, "categories": [["Delis", "delis"], ["Beer, Wine & Spirits", "beer_and_wine"]]}, {"rating": 4.0, "review_count": 184, "name": "Board Room", "longitude": -77.045326, "shape": 59, "address": ["1737 Connecticut Ave NW"], "latitude": 38.91367, "categories": [["Sports Bars", "sportsbars"], ["Lounges", "lounges"]]}, {"rating": 4.0, "review_count": 108, "name": "West Wing Cafe", "longitude": -77.027985, "shape": 305, "address": ["1111 Pennsylvania Ave"], "latitude": 38.895459, "categories": [["Delis", "delis"], ["Coffee & Tea", "coffee"], ["Sandwiches", "sandwiches"]]}, {"rating": 4.0, "review_count": 181, "name": "Qualia Coffee", "longitude": -77.024483, "shape": 234, "address": ["3917 Georgia Ave NW"], "latitude": 38.939198, "categories": [["Coffee & Tea", "coffee"]]}, {"rating": 4.5, "review_count": 54, "name": "The Yards Park", "longitude": -77.0011209324002, "shape": 364, "address": ["355 Water St SE"], "latitude": 38.8736210545083, "categories": [["Parks", "parks"], ["Venues & Event Spaces", "venues"]]}, {"rating": 4.0, "review_count": 175, "name": "Four Sisters Grill", "longitude": -77.0943398, "shape": 451, "address": ["3035 Clarendon Blvd"], "latitude": 38.8872882, "categories": [["Vietnamese", "vietnamese"]]}, {"rating": 4.0, "review_count": 748, "name": "Pizzeria Paradiso", "longitude": -77.0451466967047, "shape": 404, "address": ["2003 P St NW"], "latitude": 38.9098109186293, "categories": [["Pizza", "pizza"]]}, {"rating": 4.0, "review_count": 319, "name": "El Chal\u00e1n", "longitude": -77.0445709, "shape": 2, "address": ["1924 I St NW"], "latitude": 38.9011383, "categories": [["Peruvian", "peruvian"]]}, {"rating": 4.0, "review_count": 147, "name": "Blues Alley", "longitude": -77.0621609687805, "shape": 419, "address": ["1073 Wisconsin Ave NW"], "latitude": 38.9046849046108, "categories": [["Jazz & Blues", "jazzandblues"], ["Cajun/Creole", "cajun"]]}, {"rating": 4.0, "review_count": 501, "name": "Ted's Bulletin", "longitude": -77.0319534, "shape": 397, "address": ["1818 14th St NW"], "latitude": 38.9140919, "categories": [["Breakfast & Brunch", "breakfast_brunch"], ["American (New)", "newamerican"]]}, {"rating": 4.0, "review_count": 85, "name": "Yamas", "longitude": -77.0367821, "shape": 252, "address": ["1946 New Hampshire Ave NW"], "latitude": 38.9167614, "categories": [["Mediterranean", "mediterranean"], ["Greek", "greek"]]}, {"rating": 4.0, "review_count": 389, "name": "Ethiopic", "longitude": -77.0003890991211, "shape": 340, "address": ["401 H St NE"], "latitude": 38.8999481201172, "categories": [["Ethiopian", "ethiopian"]]}, {"rating": 4.0, "review_count": 303, "name": "The Greek Spot", "longitude": -77.026665, "shape": 436, "address": ["2017 11th St NW"], "latitude": 38.917545, "categories": [["Greek", "greek"], ["Sandwiches", "sandwiches"]]}, {"rating": 4.0, "review_count": 268, "name": "Right Proper Brewing Company", "longitude": -77.021347, "shape": 441, "address": ["624 T St NW"], "latitude": 38.9153595, "categories": [["Gastropubs", "gastropubs"], ["Breweries", "breweries"]]}, {"rating": 4.0, "review_count": 130, "name": "Slipstream", "longitude": -77.031494, "shape": 435, "address": ["1333 14th St NW"], "latitude": 38.908363, "categories": [["Coffee & Tea", "coffee"], ["Cocktail Bars", "cocktailbars"], ["American (New)", "newamerican"]]}, {"rating": 4.0, "review_count": 112, "name": "Plume", "longitude": -77.03682, "shape": 149, "address": ["1200 16th St NW"], "latitude": 38.9058902, "categories": [["American (Traditional)", "tradamerican"]]}, {"rating": 4.0, "review_count": 286, "name": "Seventh Hill", "longitude": -76.996468, "shape": 313, "address": ["327 7th St SE"], "latitude": 38.885353, "categories": [["Pizza", "pizza"], ["Vegetarian", "vegetarian"]]}, {"rating": 4.0, "review_count": 199, "name": "Market Lunch", "longitude": -76.9962845, "shape": 313, "address": ["225 7th St SE"], "latitude": 38.887001, "categories": [["American (New)", "newamerican"], ["Breakfast & Brunch", "breakfast_brunch"]]}, {"rating": 4.0, "review_count": 258, "name": "Little Miss Whiskey's Golden Dollar", "longitude": -76.9912109, "shape": 117, "address": ["1104 H St NE"], "latitude": 38.9004288, "categories": [["Bars", "bars"]]}, {"rating": 4.0, "review_count": 165, "name": "Salt and Pepper Grill", "longitude": -77.022987, "shape": 257, "address": ["2632 Georgia Ave NW"], "latitude": 38.925006, "categories": [["Indian", "indpak"], ["Pakistani", "pakistani"]]}, {"rating": 4.5, "review_count": 38, "name": "McClellan's Retreat", "longitude": -77.0465775, "shape": 424, "address": ["2031 Florida Ave NW"], "latitude": 38.9143105, "categories": [["Bars", "bars"]]}, {"rating": 4.0, "review_count": 101, "name": "Dino's Grotto", "longitude": -77.024284362793, "shape": 107, "address": ["1914 9th St NW"], "latitude": 38.9160346984863, "categories": [["Italian", "italian"], ["Wine Bars", "wine_bars"]]}, {"rating": 4.0, "review_count": 221, "name": "nopa Kitchen + Bar", "longitude": -77.0234202785273, "shape": 305, "address": ["800 F St NW"], "latitude": 38.8971359261436, "categories": [["American (New)", "newamerican"]]}, {"rating": 4.0, "review_count": 207, "name": "Unum", "longitude": -77.0587006, "shape": 419, "address": ["2917 M St NW"], "latitude": 38.9053574, "categories": [["American (New)", "newamerican"]]}, {"rating": 4.5, "review_count": 56, "name": "Ooh Dat Chicken", "longitude": -77.0375061035156, "shape": 2, "address": [], "latitude": 38.9011865487765, "categories": [["Street Vendors", "streetvendors"], ["Food Stands", "foodstands"]]}, {"rating": 4.5, "review_count": 69, "name": "Jardenea", "longitude": -77.052698135376, "shape": 38, "address": ["2430 Pennsylvania Ave NW"], "latitude": 38.9032571954831, "categories": [["American (New)", "newamerican"]]}, {"rating": 4.0, "review_count": 159, "name": "Pho Wheels", "longitude": -77.077392578125, "shape": 83, "address": [], "latitude": 38.9140739440918, "categories": [["Vietnamese", "vietnamese"], ["Food Stands", "foodstands"]]}, {"rating": 4.5, "review_count": 82, "name": "Exorcist Stairs", "longitude": -77.0701981, "shape": 72, "address": ["36th St NW and M St NW"], "latitude": 38.9050407, "categories": [["Local Flavor", "localflavor"]]}, {"rating": 4.0, "review_count": 72, "name": "Kafe Bohem", "longitude": -77.0202152431011, "shape": 441, "address": ["606 Florida Ave NW"], "latitude": 38.9153625904798, "categories": [["Coffee & Tea", "coffee"]]}, {"rating": 3.5, "review_count": 968, "name": "Farmers Fishers Bakers", "longitude": -77.0600204467773, "shape": 419, "address": ["3000 K St NW"], "latitude": 38.901741027832, "categories": [["American (New)", "newamerican"], ["Sushi Bars", "sushi"]]}, {"rating": 4.0, "review_count": 210, "name": "Red Toque Cafe", "longitude": -77.0197463859598, "shape": 441, "address": ["1701 6th St NW"], "latitude": 38.9128092090251, "categories": [["Mediterranean", "mediterranean"], ["Indian", "indpak"]]}, {"rating": 4.0, "review_count": 172, "name": "Toro Toro", "longitude": -77.0300903, "shape": 392, "address": ["1300 I (Eye) Street NW"], "latitude": 38.9011955, "categories": [["Latin American", "latin"]]}, {"rating": 4.0, "review_count": 367, "name": "El Charrito Caminante", "longitude": -77.0903563499451, "shape": 451, "address": ["2710-A N Washington Blvd"], "latitude": 38.8798420104617, "categories": [["Mexican", "mexican"], ["Latin American", "latin"]]}, {"rating": 4.0, "review_count": 447, "name": "Montmartre", "longitude": -76.996468, "shape": 313, "address": ["327 7th St SE"], "latitude": 38.885353, "categories": [["French", "french"]]}, {"rating": 4.5, "review_count": 65, "name": "Tony's Breakfast", "longitude": -76.985722, "shape": 230, "address": ["1387 H St NE"], "latitude": 38.899932, "categories": [["American (Traditional)", "tradamerican"]]}, {"rating": 4.0, "review_count": 678, "name": "District of Pi", "longitude": -77.0244675, "shape": 305, "address": ["910 F St NW"], "latitude": 38.8972054, "categories": [["Pizza", "pizza"], ["Gluten-Free", "gluten_free"]]}, {"rating": 4.0, "review_count": 410, "name": "Chinatown Coffee Co.", "longitude": -77.0186386, "shape": 308, "address": ["475 H St NW"], "latitude": 38.9000893, "categories": [["Coffee & Tea", "coffee"]]}, {"rating": 4.5, "review_count": 67, "name": "Jackpot", "longitude": -77.0222228765488, "shape": 305, "address": ["726 7th St NW"], "latitude": 38.8993232804105, "categories": [["Bars", "bars"]]}, {"rating": 4.0, "review_count": 149, "name": "Pret A Manger", "longitude": -77.0422363, "shape": 2, "address": ["1825 Eye Street, NW"], "latitude": 38.9014664, "categories": [["Sandwiches", "sandwiches"], ["Coffee & Tea", "coffee"], ["Breakfast & Brunch", "breakfast_brunch"]]}, {"rating": 4.0, "review_count": 215, "name": "Grand Trunk", "longitude": -77.021568, "shape": 136, "address": ["641 Indiana Ave NW"], "latitude": 38.894283, "categories": [["Asian Fusion", "asianfusion"], ["Pakistani", "pakistani"], ["Indian", "indpak"]]}, {"rating": 4.0, "review_count": 90, "name": "Ristorante La Perla of Washington", "longitude": -77.0549042522907, "shape": 38, "address": ["2600 Pennsylvania Ave NW"], "latitude": 38.9041462540627, "categories": [["Italian", "italian"], ["Seafood", "seafood"]]}, {"rating": 4.5, "review_count": 38, "name": "Meats & Foods", "longitude": -77.015579, "shape": 310, "address": ["247 Florida Ave NW"], "latitude": 38.913835, "categories": [["Sandwiches", "sandwiches"], ["Meat Shops", "meats"]]}, {"rating": 4.0, "review_count": 293, "name": "Panas", "longitude": -77.046286, "shape": 404, "address": ["2029 P St NW"], "latitude": 38.910304, "categories": [["Latin American", "latin"]]}, {"rating": 4.0, "review_count": 501, "name": "The Source", "longitude": -77.0197588125036, "shape": 136, "address": ["575 Pennsylvania Ave NW"], "latitude": 38.8932458913455, "categories": [["Asian Fusion", "asianfusion"], ["Dim Sum", "dimsum"], ["Japanese", "japanese"]]}, {"rating": 4.0, "review_count": 68, "name": "Penn Grill", "longitude": -77.044700490488, "shape": 2, "address": ["825 20th St NW"], "latitude": 38.901117585882, "categories": [["Sandwiches", "sandwiches"], ["Delis", "delis"], ["Chinese", "chinese"]]}, {"rating": 4.0, "review_count": 364, "name": "Mintwood Place", "longitude": -77.0434449, "shape": 53, "address": ["1813 Columbia Rd NW"], "latitude": 38.9220912, "categories": [["American (New)", "newamerican"], ["French", "french"]]}, {"rating": 4.0, "review_count": 794, "name": "Sushi Taro", "longitude": -77.038657, "shape": 103, "address": ["1503 17th St NW"], "latitude": 38.909847, "categories": [["Sushi Bars", "sushi"], ["Japanese", "japanese"]]}, {"rating": 4.0, "review_count": 121, "name": "The Blind Dog Cafe", "longitude": -77.0252532958984, "shape": 436, "address": ["944 Florida Ave"], "latitude": 38.9193153381348, "categories": [["Cafes", "cafes"], ["Bakeries", "bakeries"], ["Breakfast & Brunch", "breakfast_brunch"]]}, {"rating": 4.0, "review_count": 200, "name": "Dickson Wine Bar", "longitude": -77.0242646, "shape": 436, "address": ["903 U St NW"], "latitude": 38.9171739, "categories": [["Wine Bars", "wine_bars"]]}, {"rating": 4.0, "review_count": 240, "name": "The Saloon", "longitude": -77.0285110473633, "shape": 436, "address": ["1207 U St NW"], "latitude": 38.9171905517578, "categories": [["Pubs", "pubs"]]}, {"rating": 4.5, "review_count": 108, "name": "Cava Mezze Grill", "longitude": -77.0773315429688, "shape": 422, "address": ["4237 Wisconsin Ave NW"], "latitude": 38.9443321228027, "categories": [["Greek", "greek"], ["Mediterranean", "mediterranean"], ["Fast Food", "hotdogs"]]}, {"rating": 4.0, "review_count": 170, "name": "Casa Luca", "longitude": -77.0266494, "shape": 392, "address": ["1099 New York Ave NW"], "latitude": 38.9014595, "categories": [["Italian", "italian"]]}, {"rating": 4.5, "review_count": 76, "name": "Metro Halal Food Cart", "longitude": -77.11097, "shape": 451, "address": ["4201 Wilson Blvd"], "latitude": 38.880505, "categories": [["Halal", "halal"], ["Pakistani", "pakistani"], ["Food Stands", "foodstands"]]}, {"rating": 4.0, "review_count": 230, "name": "Jojo Restaurant And Bar", "longitude": -77.035385, "shape": 383, "address": ["1518 U St NW"], "latitude": 38.916744, "categories": [["American (Traditional)", "tradamerican"], ["Jazz & Blues", "jazzandblues"], ["Lounges", "lounges"]]}, {"rating": 4.0, "review_count": 188, "name": "Mourayo", "longitude": -77.04615, "shape": 404, "address": ["1732 -1734 Connecticut Ave NW"], "latitude": 38.913593, "categories": [["Greek", "greek"], ["Seafood", "seafood"], ["Mediterranean", "mediterranean"]]}, {"rating": 5.0, "review_count": 58, "name": "Casa Rosada Artisan Gelato", "longitude": -77.053864, "shape": 451, "address": ["111 S Payne St"], "latitude": 38.805519, "categories": [["Gelato", "gelato"], ["Desserts", "desserts"], ["Coffee & Tea", "coffee"]]}, {"rating": 4.0, "review_count": 137, "name": "Sweetgreen", "longitude": -77.03397303140599, "shape": 397, "address": ["1471 P St NW"], "latitude": 38.90980554135, "categories": [["American (New)", "newamerican"], ["Salad", "salad"]]}, {"rating": 4.0, "review_count": 1121, "name": "Ted's Bulletin", "longitude": -76.995338, "shape": 265, "address": ["505 8th St SE"], "latitude": 38.882454, "categories": [["American (New)", "newamerican"], ["Breakfast & Brunch", "breakfast_brunch"]]}, {"rating": 4.0, "review_count": 432, "name": "Ravi Kabob House", "longitude": -77.1062437444925, "shape": 451, "address": ["350 N Glebe Rd"], "latitude": 38.8744126260281, "categories": [["Pakistani", "pakistani"]]}, {"rating": 4.0, "review_count": 294, "name": "Charlie Palmer Steak", "longitude": -77.0130692, "shape": 308, "address": ["101 Constitution Avenue Northwest"], "latitude": 38.8927994, "categories": [["Steakhouses", "steak"], ["Lounges", "lounges"]]}, {"rating": 4.0, "review_count": 760, "name": "Granville Moore's", "longitude": -76.9889221, "shape": 117, "address": ["1238 H St NE"], "latitude": 38.9004097, "categories": [["American (New)", "newamerican"], ["Belgian", "belgian"], ["Gastropubs", "gastropubs"]]}, {"rating": 4.5, "review_count": 76, "name": "Nomad", "longitude": -76.990002, "shape": 117, "address": ["1200 H St NE"], "latitude": 38.9004173278809, "categories": [["Hookah Bars", "hookah_bars"], ["Lounges", "lounges"]]}, {"rating": 4.0, "review_count": 292, "name": "Nellie's Sports Bar", "longitude": -77.024206198442, "shape": 107, "address": ["900 U St NW"], "latitude": 38.916881946188, "categories": [["Gay Bars", "gaybars"], ["Sports Bars", "sportsbars"], ["American (Traditional)", "tradamerican"]]}, {"rating": 4.0, "review_count": 176, "name": "Jetties", "longitude": -77.083978929927, "shape": 421, "address": ["1609 Foxhall Rd NW"], "latitude": 38.911227771218, "categories": [["Sandwiches", "sandwiches"], ["Delis", "delis"]]}, {"rating": 4.0, "review_count": 363, "name": "Bonchon Arlington", "longitude": -77.0856336504221, "shape": 451, "address": ["2209 N Pershing Dr", "Ste E"], "latitude": 38.8807620853186, "categories": [["Chicken Wings", "chicken_wings"], ["Korean", "korean"]]}, {"rating": 3.5, "review_count": 705, "name": "Busboys and Poets", "longitude": -77.018738476113, "shape": 366, "address": ["1025 5th St NW"], "latitude": 38.902820047311, "categories": [["Bookstores", "bookstores"], ["Coffee & Tea", "coffee"], ["Vegetarian", "vegetarian"]]}, {"rating": 4.0, "review_count": 646, "name": "Sticky Fingers Sweets & Eats", "longitude": -77.0321390032768, "shape": 226, "address": ["1370 Park Rd NW"], "latitude": 38.9304372668266, "categories": [["Bakeries", "bakeries"], ["Vegan", "vegan"], ["Coffee & Tea", "coffee"]]}, {"rating": 4.0, "review_count": 167, "name": "BakeHouse", "longitude": -77.0323272518118, "shape": 207, "address": ["1407 T St NW"], "latitude": 38.9157029474859, "categories": [["Bakeries", "bakeries"], ["Coffee & Tea", "coffee"], ["Desserts", "desserts"]]}, {"rating": 4.0, "review_count": 77, "name": "Dickey's Frozen Custard", "longitude": -77.0401243, "shape": 2, "address": ["1710 I St NW"], "latitude": 38.9012767, "categories": [["Ice Cream & Frozen Yogurt", "icecream"], ["Sandwiches", "sandwiches"]]}, {"rating": 4.0, "review_count": 104, "name": "Thally", "longitude": -77.0240082129832, "shape": 23, "address": ["1316 9th St NW"], "latitude": 38.9078281038309, "categories": [["American (New)", "newamerican"], ["Bars", "bars"]]}, {"rating": 4.0, "review_count": 343, "name": "The White House", "longitude": -77.0365357495676, "shape": 283, "address": ["1600 Pennsylvania Ave NW"], "latitude": 38.8979533521555, "categories": [["Landmarks & Historical Buildings", "landmarks"]]}, {"rating": 4.5, "review_count": 51, "name": "&pizza", "longitude": -76.9965863227844, "shape": 409, "address": ["666 Monroe St NE"], "latitude": 38.9324348419905, "categories": [["Pizza", "pizza"], ["Vegetarian", "vegetarian"], ["Vegan", "vegan"]]}, {"rating": 4.5, "review_count": 33, "name": "Bravo Bar", "longitude": -77.022782, "shape": 244, "address": ["2917 Georgia Ave NW"], "latitude": 38.927799, "categories": [["Bars", "bars"]]}, {"rating": 4.0, "review_count": 448, "name": "Russia House Restaurant & Lounge", "longitude": -77.046508, "shape": 424, "address": ["1800 Connecticut Ave NW"], "latitude": 38.914402, "categories": [["Lounges", "lounges"], ["Russian", "russian"]]}, {"rating": 4.0, "review_count": 180, "name": "Khepra's Raw Food Juice Bar", "longitude": -77.0002594, "shape": 408, "address": ["402 H St NE"], "latitude": 38.9004593, "categories": [["Live/Raw Food", "raw_food"], ["Juice Bars & Smoothies", "juicebars"], ["Vegan", "vegan"]]}, {"rating": 4.5, "review_count": 43, "name": "Gypsy Sally's", "longitude": -77.0679445744438, "shape": 72, "address": ["3401 K St NW"], "latitude": 38.9041329925366, "categories": [["Music Venues", "musicvenues"], ["Bars", "bars"]]}, {"rating": 4.0, "review_count": 159, "name": "Masala Express", "longitude": -77.0897522, "shape": 451, "address": ["2622-A North Pershing Dr"], "latitude": 38.8806458, "categories": [["Indian", "indpak"]]}, {"rating": 4.0, "review_count": 203, "name": "Bourbon Coffee", "longitude": -77.047493193173, "shape": 2, "address": ["2101 L St NW"], "latitude": 38.903867124451, "categories": [["Coffee & Tea", "coffee"]]}, {"rating": 4.0, "review_count": 67, "name": "Nagomi Izakaya", "longitude": -77.0442814214264, "shape": 2, "address": ["1990 M St NW", "Ste 100"], "latitude": 38.9055434369695, "categories": [["Sushi Bars", "sushi"], ["Ramen", "ramen"]]}, {"rating": 3.5, "review_count": 572, "name": "Sichuan Pavilion", "longitude": -77.0425974603272, "shape": 2, "address": ["1814 K St NW"], "latitude": 38.902487490116, "categories": [["Szechuan", "szechuan"]]}, {"rating": 4.5, "review_count": 78, "name": "Cornercopia", "longitude": -77.001808, "shape": 52, "address": ["1000 3rd St SE"], "latitude": 38.878273, "categories": [["Delis", "delis"], ["Convenience Stores", "convenience"], ["Beer, Wine & Spirits", "beer_and_wine"]]}, {"rating": 4.0, "review_count": 56, "name": "Daily 14", "longitude": -77.031775287256, "shape": 392, "address": ["1135 14th St NW"], "latitude": 38.904937391901, "categories": [["Convenience Stores", "convenience"], ["Sandwiches", "sandwiches"]]}, {"rating": 4.0, "review_count": 536, "name": "Cedar", "longitude": -77.023318, "shape": 305, "address": ["822 E St NW"], "latitude": 38.896026, "categories": [["American (New)", "newamerican"], ["French", "french"]]}, {"rating": 4.0, "review_count": 161, "name": "South Block Cafe", "longitude": -77.0939578, "shape": 451, "address": ["3011 N 11th St"], "latitude": 38.886226, "categories": [["Juice Bars & Smoothies", "juicebars"], ["Coffee & Tea", "coffee"]]}, {"rating": 4.5, "review_count": 30, "name": "Jumbo Slice Pizza Kouzina Angelina's", "longitude": -77.0226795226336, "shape": 25, "address": ["725 Florida Ave NW"], "latitude": 38.9167436222272, "categories": [["Pizza", "pizza"]]}, {"rating": 4.0, "review_count": 127, "name": "Crepes On The Walk", "longitude": -77.0217743, "shape": 136, "address": ["701 7th St NW"], "latitude": 38.898571, "categories": [["Desserts", "desserts"], ["Creperies", "creperies"]]}, {"rating": 4.0, "review_count": 230, "name": "Al Tiramisu", "longitude": -77.04557, "shape": 437, "address": ["2014 P St NW"], "latitude": 38.909393, "categories": [["Italian", "italian"]]}, {"rating": 4.0, "review_count": 150, "name": "Black Jack", "longitude": -77.032363, "shape": 397, "address": ["1612 14th St NW"], "latitude": 38.911628, "categories": [["Lounges", "lounges"], ["Cocktail Bars", "cocktailbars"]]}, {"rating": 4.5, "review_count": 44, "name": "Ball or Nothing", "longitude": -77.03709, "shape": 233, "address": [], "latitude": 38.92041, "categories": [["Street Vendors", "streetvendors"], ["Italian", "italian"], ["American (Traditional)", "tradamerican"]]}, {"rating": 4.0, "review_count": 121, "name": "Sona Creamery & Wine Bar", "longitude": -76.9965618, "shape": 313, "address": ["660 Pennsylvania Ave SE"], "latitude": 38.8850804, "categories": [["Wine Bars", "wine_bars"], ["Cheese Shops", "cheese"]]}, {"rating": 4.0, "review_count": 100, "name": "Mockingbird Hill", "longitude": -77.0219039, "shape": 441, "address": ["1843 7th St NW"], "latitude": 38.9151536, "categories": [["Wine Bars", "wine_bars"]]}, {"rating": 4.5, "review_count": 25, "name": "Sweetgreen", "longitude": -77.0313921289439, "shape": 436, "address": ["1325 W St NW"], "latitude": 38.91922223875, "categories": [["Salad", "salad"], ["Juice Bars & Smoothies", "juicebars"], ["Ice Cream & Frozen Yogurt", "icecream"]]}, {"rating": 3.5, "review_count": 406, "name": "The Bombay Club", "longitude": -77.0379486, "shape": 2, "address": ["815 Connecticut Ave NW"], "latitude": 38.900959, "categories": [["Indian", "indpak"]]}, {"rating": 3.5, "review_count": 1247, "name": "Jaleo", "longitude": -77.0220413, "shape": 305, "address": ["480 7th St NW"], "latitude": 38.8957748, "categories": [["Spanish", "spanish"], ["Tapas Bars", "tapas"]]}, {"rating": 4.0, "review_count": 189, "name": "Bagels Etc.", "longitude": -77.0476303100586, "shape": 269, "address": ["2122 P Street NW"], "latitude": 38.9093971252441, "categories": [["Bagels", "bagels"], ["Breakfast & Brunch", "breakfast_brunch"], ["Sandwiches", "sandwiches"]]}, {"rating": 4.0, "review_count": 166, "name": "District Doughnut", "longitude": -76.9951451508514, "shape": 265, "address": ["749 8th St SE"], "latitude": 38.8796051022188, "categories": [["Donuts", "donuts"], ["Coffee & Tea", "coffee"]]}, {"rating": 4.0, "review_count": 706, "name": "Northside Social Coffee & Wine", "longitude": -77.0977936, "shape": 451, "address": ["3211 Wilson Blvd"], "latitude": 38.8854408, "categories": [["American (Traditional)", "tradamerican"], ["Coffee & Tea", "coffee"], ["Wine Bars", "wine_bars"]]}, {"rating": 4.0, "review_count": 610, "name": "Nando's PERi-PERi", "longitude": -77.0217397867798, "shape": 136, "address": ["819 7th St NW"], "latitude": 38.9002882773727, "categories": [["Portuguese", "portuguese"], ["South African", "southafrican"]]}, {"rating": 4.0, "review_count": 110, "name": "West Wing Cafe", "longitude": -77.010816, "shape": 308, "address": ["300 New Jersey Ave NW"], "latitude": 38.894425, "categories": [["Delis", "delis"]]}, {"rating": 4.0, "review_count": 987, "name": "Masa 14", "longitude": -77.0318902283907, "shape": 107, "address": ["1825 14th St NW"], "latitude": 38.914966955781, "categories": [["Asian Fusion", "asianfusion"]]}, {"rating": 4.0, "review_count": 49, "name": "Cafe Carvy", "longitude": -77.043816, "shape": 2, "address": ["1020 19th St NW"], "latitude": 38.903152, "categories": [["Cafes", "cafes"], ["Breakfast & Brunch", "breakfast_brunch"]]}, {"rating": 4.0, "review_count": 363, "name": "Matchbox 14th Street", "longitude": -77.031941, "shape": 107, "address": ["1901 14th St NW"], "latitude": 38.915611, "categories": [["Pizza", "pizza"], ["American (New)", "newamerican"], ["Burgers", "burgers"]]}, {"rating": 4.5, "review_count": 69, "name": "Cafe Kimchi", "longitude": -76.995237, "shape": 265, "address": ["751 8th St SE"], "latitude": 38.879565, "categories": [["Korean", "korean"], ["Breakfast & Brunch", "breakfast_brunch"], ["American (Traditional)", "tradamerican"]]}, {"rating": 4.0, "review_count": 580, "name": "Hot N Juicy Crawfish", "longitude": -77.0519256591797, "shape": 326, "address": ["2651 Connecticut Ave NW"], "latitude": 38.9250640869141, "categories": [["Seafood", "seafood"], ["Cajun/Creole", "cajun"]]}, {"rating": 4.0, "review_count": 334, "name": "Wicked Waffle", "longitude": -77.040022, "shape": 2, "address": ["1712 I St NW"], "latitude": 38.901091, "categories": [["Breakfast & Brunch", "breakfast_brunch"], ["Sandwiches", "sandwiches"], ["Gluten-Free", "gluten_free"]]}, {"rating": 4.0, "review_count": 161, "name": "Compass Rose", "longitude": -77.0314902439713, "shape": 107, "address": ["1346 T St NW"], "latitude": 38.9154319818375, "categories": [["Mediterranean", "mediterranean"], ["Ethnic Food", "ethnicmarkets"], ["Gastropubs", "gastropubs"]]}, {"rating": 3.5, "review_count": 861, "name": "Daikaya - Ramen Shop", "longitude": -77.019589, "shape": 136, "address": ["705 6th St NW"], "latitude": 38.898575, "categories": [["Ramen", "ramen"]]}, {"rating": 4.0, "review_count": 117, "name": "Restaurant Judy", "longitude": -77.0323257446289, "shape": 383, "address": ["2212 14th St NW"], "latitude": 38.9196701049805, "categories": [["Latin American", "latin"]]}, {"rating": 3.5, "review_count": 564, "name": "Lincoln", "longitude": -77.0332108, "shape": 360, "address": ["1110 Vermont Ave NW"], "latitude": 38.9042816, "categories": [["Southern", "southern"], ["Gastropubs", "gastropubs"]]}, {"rating": 4.0, "review_count": 351, "name": "Brooklyn Bagel Bakery", "longitude": -77.084259, "shape": 451, "address": ["2055 Wilson Blvd"], "latitude": 38.8917618, "categories": [["Bagels", "bagels"], ["Coffee & Tea", "coffee"], ["Sandwiches", "sandwiches"]]}, {"rating": 3.5, "review_count": 1061, "name": "Graffiato", "longitude": -77.019592, "shape": 136, "address": ["707 6th St NW"], "latitude": 38.89867, "categories": [["Pizza", "pizza"], ["Italian", "italian"], ["Breakfast & Brunch", "breakfast_brunch"]]}, {"rating": 4.0, "review_count": 1197, "name": "2 Amys Neapolitan Pizzeria", "longitude": -77.0730667, "shape": 329, "address": ["3715 Macomb St NW"], "latitude": 38.9337196, "categories": [["Pizza", "pizza"], ["Italian", "italian"]]}, {"rating": 4.0, "review_count": 228, "name": "Moby Dick House of Kabob", "longitude": -77.042834, "shape": 149, "address": ["1300 Connecticut Ave NW"], "latitude": 38.907398, "categories": [["Middle Eastern", "mideastern"], ["Persian/Iranian", "persian"]]}, {"rating": 4.0, "review_count": 84, "name": "Potbelly Sandwich Shop", "longitude": -77.039917, "shape": 2, "address": ["1701 Pennsylvania Ave NW"], "latitude": 38.8993683, "categories": [["Sandwiches", "sandwiches"]]}, {"rating": 4.0, "review_count": 309, "name": "The Regent", "longitude": -77.041989, "shape": 59, "address": ["1910 18th St NW"], "latitude": 38.916081, "categories": [["Thai", "thai"]]}, {"rating": 4.0, "review_count": 310, "name": "Room 11", "longitude": -77.0281178, "shape": 225, "address": ["3234 11th St NW"], "latitude": 38.9305551, "categories": [["Wine Bars", "wine_bars"], ["American (New)", "newamerican"], ["Coffee & Tea", "coffee"]]}, {"rating": 4.0, "review_count": 168, "name": "Cafe Tu-O-Tu", "longitude": -77.057632, "shape": 419, "address": ["2816 Pennsylvania Ave NW"], "latitude": 38.904892, "categories": [["Turkish", "turkish"], ["Mediterranean", "mediterranean"], ["Cafes", "cafes"]]}, {"rating": 3.5, "review_count": 810, "name": "Kafe Leopold", "longitude": -77.066417520389, "shape": 72, "address": ["3315 Cady's Alley NW"], "latitude": 38.90479187442, "categories": [["American (New)", "newamerican"], ["Austrian", "austrian"], ["Modern European", "modern_european"]]}, {"rating": 4.0, "review_count": 355, "name": "Kapnos", "longitude": -77.0318283404755, "shape": 436, "address": ["2201 14th St NW"], "latitude": 38.9192513316767, "categories": [["Greek", "greek"], ["Breakfast & Brunch", "breakfast_brunch"], ["Tapas/Small Plates", "tapasmallplates"]]}, {"rating": 4.5, "review_count": 76, "name": "Figs Lebanese Cafe", "longitude": -77.0965424, "shape": 10, "address": ["4828 MacArthur Blvd NW"], "latitude": 38.91679, "categories": [["Mediterranean", "mediterranean"], ["Cafes", "cafes"], ["Lebanese", "lebanese"]]}, {"rating": 4.0, "review_count": 267, "name": "St. Arnold's Mussel Bar", "longitude": -77.058149, "shape": 379, "address": ["3433 Connecticut Ave NW"], "latitude": 38.935395, "categories": [["Bars", "bars"], ["Seafood", "seafood"]]}, {"rating": 4.5, "review_count": 36, "name": "Air Force Memorial", "longitude": -77.0668816566467, "shape": 451, "address": ["1 Air Force Memorial Dr"], "latitude": 38.868382124737, "categories": [["Landmarks & Historical Buildings", "landmarks"]]}, {"rating": 3.5, "review_count": 562, "name": "Vinoteca", "longitude": -77.027394, "shape": 107, "address": ["1940 11th St NW"], "latitude": 38.916758, "categories": [["Wine Bars", "wine_bars"], ["American (New)", "newamerican"]]}, {"rating": 4.0, "review_count": 43, "name": "Sip of Seattle", "longitude": -77.0277481, "shape": 305, "address": ["1120 G St NW"], "latitude": 38.8980103, "categories": [["Restaurants", "restaurants"], ["Coffee & Tea", "coffee"]]}, {"rating": 4.0, "review_count": 179, "name": "Bistro Bohem", "longitude": -77.0200617, "shape": 441, "address": ["600 Florida Ave NW"], "latitude": 38.9154345, "categories": [["Breakfast & Brunch", "breakfast_brunch"], ["Modern European", "modern_european"], ["Diners", "diners"]]}, {"rating": 4.5, "review_count": 39, "name": "La Tingeria", "longitude": -77.09793, "shape": 451, "address": [], "latitude": 38.85969, "categories": [["Street Vendors", "streetvendors"], ["Mexican", "mexican"], ["Caterers", "catering"]]}, {"rating": 4.0, "review_count": 248, "name": "The Prime Rib", "longitude": -77.0459976196289, "shape": 2, "address": ["2020 K St NW"], "latitude": 38.9021186828613, "categories": [["Steakhouses", "steak"]]}, {"rating": 4.0, "review_count": 131, "name": "Wisdom", "longitude": -76.984116, "shape": 416, "address": ["1432 Pennsylvania Ave SE"], "latitude": 38.880112, "categories": [["Lounges", "lounges"]]}, {"rating": 4.0, "review_count": 174, "name": "I-Thai Restaurant & Sushi Bar", "longitude": -77.0592474, "shape": 419, "address": ["3003 M St NW"], "latitude": 38.9052295, "categories": [["Thai", "thai"], ["Sushi Bars", "sushi"]]}, {"rating": 4.0, "review_count": 179, "name": "Roti Mediterranean Grill", "longitude": -77.0494232, "shape": 361, "address": ["2221 I St NW"], "latitude": 38.9010887, "categories": [["Mediterranean", "mediterranean"], ["Middle Eastern", "mideastern"]]}, {"rating": 4.0, "review_count": 125, "name": "Peregrine Espresso", "longitude": -77.0324020385742, "shape": 397, "address": ["1718 14th St NW"], "latitude": 38.9132766723633, "categories": [["Coffee & Tea", "coffee"]]}, {"rating": 4.0, "review_count": 209, "name": "Moby Dick House of Kabob", "longitude": -77.0613022, "shape": 419, "address": ["1070 31st St NW"], "latitude": 38.9048615, "categories": [["Middle Eastern", "mideastern"], ["Persian/Iranian", "persian"]]}, {"rating": 4.0, "review_count": 207, "name": "China Boy", "longitude": -77.019577, "shape": 136, "address": ["815 6th St NW"], "latitude": 38.900372, "categories": [["Chinese", "chinese"]]}, {"rating": 3.5, "review_count": 617, "name": "Urbana", "longitude": -77.0474696, "shape": 404, "address": ["2121 P St NW"], "latitude": 38.9098016, "categories": [["Italian", "italian"], ["Breakfast & Brunch", "breakfast_brunch"], ["Pizza", "pizza"]]}, {"rating": 4.0, "review_count": 189, "name": "Protein Bar", "longitude": -77.0219573378563, "shape": 305, "address": ["398 7th St NW"], "latitude": 38.8946425169706, "categories": [["Vegetarian", "vegetarian"], ["Juice Bars & Smoothies", "juicebars"], ["Gluten-Free", "gluten_free"]]}, {"rating": 4.5, "review_count": 82, "name": "Rock Creek Park Nature Center", "longitude": -77.05172438992, "shape": 330, "address": ["5200 Glover Rd NW"], "latitude": 38.960020814477, "categories": [["Parks", "parks"]]}, {"rating": 3.5, "review_count": 1126, "name": "Zengo", "longitude": -77.0217743, "shape": 136, "address": ["781 Seventh Street NW"], "latitude": 38.8994751, "categories": [["Latin American", "latin"], ["Asian Fusion", "asianfusion"]]}, {"rating": 4.0, "review_count": 80, "name": "The Smithsonian Institution", "longitude": -77.0263125747442, "shape": 283, "address": ["1000 Jefferson Dr SW"], "latitude": 38.8890004903078, "categories": [["Landmarks & Historical Buildings", "landmarks"], ["Museums", "museums"], ["Art Galleries", "galleries"]]}, {"rating": 4.5, "review_count": 45, "name": "All Souls Bar", "longitude": -77.0227059, "shape": 107, "address": ["725 T St NW"], "latitude": 38.9157506, "categories": [["Bars", "bars"]]}, {"rating": 3.5, "review_count": 458, "name": "Eighteenth Street Lounge", "longitude": -77.0420532, "shape": 149, "address": ["1212 18th St N W"], "latitude": 38.9062119, "categories": [["Lounges", "lounges"], ["Dance Clubs", "danceclubs"]]}, {"rating": 4.0, "review_count": 214, "name": "Boundary Road", "longitude": -76.999878, "shape": 408, "address": ["414 H St NE"], "latitude": 38.900467, "categories": [["American (Traditional)", "tradamerican"]]}, {"rating": 4.0, "review_count": 108, "name": "Cafe Phillips", "longitude": -77.0325317, "shape": 392, "address": ["1401 H St NW"], "latitude": 38.9005394, "categories": [["Breakfast & Brunch", "breakfast_brunch"], ["American (Traditional)", "tradamerican"]]}, {"rating": 4.0, "review_count": 110, "name": "National Cherry Blossom Festival", "longitude": -77.0362231280573, "shape": 283, "address": ["Tidal Basin"], "latitude": 38.8850438683136, "categories": [["Festivals", "festivals"], ["Parks", "parks"]]}, {"rating": 4.0, "review_count": 212, "name": "Julia's Empanadas", "longitude": -77.042747, "shape": 100, "address": ["2452 18th St NW"], "latitude": 38.92197, "categories": [["Latin American", "latin"]]}, {"rating": 4.0, "review_count": 247, "name": "Earls", "longitude": -77.089932, "shape": 451, "address": ["2605 Wilson Blvd"], "latitude": 38.890106, "categories": [["Sandwiches", "sandwiches"], ["Caterers", "catering"]]}, {"rating": 4.0, "review_count": 189, "name": "Daikaya", "longitude": -77.019589, "shape": 136, "address": ["705 6th St NW"], "latitude": 38.898603, "categories": [["Japanese", "japanese"]]}, {"rating": 4.0, "review_count": 158, "name": "Super Pollo", "longitude": -77.108069698522, "shape": 451, "address": ["550 N Quincy St"], "latitude": 38.877862629807, "categories": [["Peruvian", "peruvian"]]}, {"rating": 4.0, "review_count": 437, "name": "Ray's To The Third", "longitude": -77.0777588, "shape": 451, "address": ["1650 Wilson Blvd"], "latitude": 38.893959, "categories": [["Steakhouses", "steak"], ["American (Traditional)", "tradamerican"], ["Burgers", "burgers"]]}, {"rating": 4.0, "review_count": 329, "name": "Mama Ayesha's", "longitude": -77.0466604828835, "shape": 239, "address": ["1967 Calvert St NW"], "latitude": 38.9232952147722, "categories": [["Middle Eastern", "mideastern"], ["Mediterranean", "mediterranean"]]}, {"rating": 4.0, "review_count": 200, "name": "Osteria Morini", "longitude": -77.0013841708283, "shape": 364, "address": ["301 Water St SE", "Ste 109"], "latitude": 38.8733022086741, "categories": [["Italian", "italian"]]}, {"rating": 3.5, "review_count": 1516, "name": "Oyamel Cocina Mexicana", "longitude": -77.0218453556299, "shape": 136, "address": ["401 7th St NW"], "latitude": 38.8949181139469, "categories": [["Mexican", "mexican"], ["Tapas Bars", "tapas"]]}, {"rating": 3.5, "review_count": 290, "name": "Bayou", "longitude": -77.0538534969091, "shape": 372, "address": ["2519 Pennsylvania Ave NW"], "latitude": 38.9038740098476, "categories": [["Music Venues", "musicvenues"], ["Cajun/Creole", "cajun"]]}, {"rating": 4.5, "review_count": 23, "name": "The Smithsonian Folklife Festival", "longitude": -77.036667, "shape": 283, "address": ["National Mall"], "latitude": 38.895, "categories": [["Local Flavor", "localflavor"], ["Festivals", "festivals"]]}, {"rating": 4.0, "review_count": 568, "name": "Bangkok 54 Restaurant & Bar", "longitude": -77.087696, "shape": 451, "address": ["2919 Columbia Pike"], "latitude": 38.862589, "categories": [["Thai", "thai"]]}, {"rating": 4.5, "review_count": 64, "name": "Potbelly Sandwich Shop", "longitude": -77.0422653047851, "shape": 451, "address": ["Ronald Reagan Washington National Airport", "2605 S Clark St"], "latitude": 38.851177296821, "categories": [["Sandwiches", "sandwiches"], ["Salad", "salad"]]}, {"rating": 4.5, "review_count": 46, "name": "Askale Cafe", "longitude": -76.9910351, "shape": 213, "address": ["3629 12th St NE"], "latitude": 38.9343713, "categories": [["Ethiopian", "ethiopian"], ["Coffee & Tea", "coffee"]]}, {"rating": 4.0, "review_count": 47, "name": "Seasons Restaurant", "longitude": -77.057556, "shape": 419, "address": ["2800 Pennsylvania Ave NW"], "latitude": 38.904488, "categories": [["American (New)", "newamerican"]]}, {"rating": 4.0, "review_count": 370, "name": "Me Jana", "longitude": -77.0867072045803, "shape": 451, "address": ["2300 Wilson Blvd"], "latitude": 38.8909269869328, "categories": [["Mediterranean", "mediterranean"], ["Lebanese", "lebanese"]]}, {"rating": 4.0, "review_count": 134, "name": "Byblos Deli", "longitude": -77.0583878, "shape": 439, "address": ["3414 Connecticut Ave NW"], "latitude": 38.9347191, "categories": [["Middle Eastern", "mideastern"]]}, {"rating": 4.5, "review_count": 53, "name": "Far East Taco Grille", "longitude": -76.983377, "shape": 267, "address": ["409 15th St NE"], "latitude": 38.895272, "categories": [["Mexican", "mexican"], ["Asian Fusion", "asianfusion"]]}, {"rating": 4.0, "review_count": 46, "name": "Cafe Grande", "longitude": -77.041267, "shape": 2, "address": ["1775 K St NW"], "latitude": 38.902885, "categories": [["Coffee & Tea", "coffee"]]}, {"rating": 4.5, "review_count": 71, "name": "Tazza Kitchen Arlington Ridge", "longitude": -77.0678137242794, "shape": 451, "address": ["2931 S Glebe Rd"], "latitude": 38.8448385894299, "categories": [["Cocktail Bars", "cocktailbars"], ["Italian", "italian"], ["Mexican", "mexican"]]}, {"rating": 4.0, "review_count": 123, "name": "Sophie's Cuban Cuisine", "longitude": -77.043793, "shape": 2, "address": ["1134 19th St NW"], "latitude": 38.904808, "categories": [["Cuban", "cuban"], ["Sandwiches", "sandwiches"]]}, {"rating": 3.5, "review_count": 550, "name": "Teaism", "longitude": -77.0458109230396, "shape": 404, "address": ["2009 R St NW"], "latitude": 38.9127871541497, "categories": [["Tea Rooms", "tea"], ["Indian", "indpak"]]}, {"rating": 4.0, "review_count": 36, "name": "Capital Teas", "longitude": -77.0443954467773, "shape": 188, "address": ["1627 Connecticut Ave"], "latitude": 38.9120407104492, "categories": [["Coffee & Tea", "coffee"]]}, {"rating": 4.5, "review_count": 56, "name": "Arlington Kabob", "longitude": -77.1310229, "shape": 451, "address": ["5046 Lee Hwy"], "latitude": 38.8963272, "categories": [["Afghan", "afghani"], ["Halal", "halal"]]}, {"rating": 4.0, "review_count": 74, "name": "Crane & Turtle", "longitude": -77.0245882496238, "shape": 13, "address": ["828 Upshur St NW"], "latitude": 38.9417524969359, "categories": [["Japanese", "japanese"], ["French", "french"]]}]